,title,id,ontologyId,resultType,address,position,access,distance,categories,chains,references,contacts,openingHours,foodTypes,lat,lng
0,Gemini Auto Supply & Motorcycle Parts,here:pds:place:608wdv7f-54a6ffb2847541c68924d21f10001ba5,here:cm:ontology:petrol_gasoline_station,place,"{'label': 'Gemini Auto Supply & Motorcycle Parts, Pangasinan-Zambales Rd, 2404 Alaminos, Philippines', 'countryCode': 'PHL', 'countryName': 'Philippines', 'state': 'Ilocos Region', 'county': 'Pangasinan', 'city': 'Alaminos', 'district': 'Magsaysay', 'street': 'Pangasinan-Zambales Rd', 'postalCode': '2404'}","{'lat': 16.15403, 'lng': 119.98168}","[{'lat': 16.15407, 'lng': 119.9817}]",302,"[{'id': '700-7600-0116', 'name': 'Gas Station', 'primary': True}]",,,,,,16.15403,119.98168
1,Petron,here:pds:place:608jx7ps-1392146e13260203a90a88200f92243b,here:cm:ontology:petrol_gasoline_station,place,"{'label': 'Petron, Pangasinan-Zambales Rd, 2404 Alaminos, Philippines', 'countryCode': 'PHL', 'countryName': 'Philippines', 'state': 'Ilocos Region', 'county': 'Pangasinan', 'city': 'Alaminos', 'district': 'Magsaysay', 'street': 'Pangasinan-Zambales Rd', 'postalCode': '2404'}","{'lat': 16.15349, 'lng': 119.9826}","[{'lat': 16.15349, 'lng': 119.9826}]",407,"[{'id': '700-7600-0116', 'name': 'Gas Station', 'primary': True}, {'id': '600-6000-0061', 'name': 'Convenience Store'}, {'id': '700-7850-0000', 'name': 'Car Repair - Service'}, {'id': '700-7850-0122', 'name': 'Car Repair'}]",[{'id': '7065'}],"[{'supplier': {'id': 'core'}, 'id': '1083863198'}, {'supplier': {'id': 'core'}, 'id': '1083863199'}, {'supplier': {'id': 'core'}, 'id': '1083863200'}]","[{'phone': [{'value': '+637585527072'}], 'www': [{'value': 'http://petron-alaminos-ph.placestars.com', 'categories': [{'id': '700-7600-0116'}, {'id': '700-7850-0122'}]}]}]",,,16.15349,119.9826
2,Rystar,here:pds:place:608wdv7f-61b8f02dcb5d4a49ace5859d1354b902,here:cm:ontology:petrol_gasoline_station,place,"{'label': 'Rystar, San Jose Dr, 2404 Alaminos, Philippines', 'countryCode': 'PHL', 'countryName': 'Philippines', 'state': 'Ilocos Region', 'county': 'Pangasinan', 'city': 'Alaminos', 'district': 'Magsaysay', 'street': 'San Jose Dr', 'postalCode': '2404'}","{'lat': 16.16312, 'lng': 119.98344}","[{'lat': 16.16311, 'lng': 119.98346}]",821,"[{'id': '700-7600-0116', 'name': 'Gas Station', 'primary': True}]",,"[{'supplier': {'id': 'core'}, 'id': '1204180821'}]",,,,16.16312,119.98344
3,Caltex,here:pds:place:608wdv7f-cc48fcd8d9cf4e35a879053ffc31b16b,here:cm:ontology:petrol_gasoline_station,place,"{'label': 'Caltex, Pangasinan-Zambales Rd, 2404 Alaminos, Philippines', 'countryCode': 'PHL', 'countryName': 'Philippines', 'state': 'Ilocos Region', 'county': 'Pangasinan', 'city': 'Alaminos', 'district': 'Poblacion', 'street': 'Pangasinan-Zambales Rd', 'postalCode': '2404'}","{'lat': 16.15028, 'lng': 119.98589}","[{'lat': 16.1503, 'lng': 119.98592}]",906,"[{'id': '700-7600-0116', 'name': 'Gas Station', 'primary': True}, {'id': '600-6000-0061', 'name': 'Convenience Store'}, {'id': '700-7850-0121', 'name': 'Car Wash - Detailing'}]",[{'id': '878'}],"[{'supplier': {'id': 'core'}, 'id': '1194183597'}, {'supplier': {'id': 'core'}, 'id': '1194621241'}, {'supplier': {'id': 'core'}, 'id': '1196687365'}]","[{'www': [{'value': 'https://www.caltex.com/ph/en.html', 'categories': [{'id': '700-7600-0116'}]}]}]",,,16.15028,119.98589
4,TOTAL,here:pds:place:608wdv7f-8254a33a8b7345529481351a0fac7d42,here:cm:ontology:petrol_gasoline_station,place,"{'label': 'TOTAL, Pangasinan-Zambales Rd, 2404 Alaminos, Philippines', 'countryCode': 'PHL', 'countryName': 'Philippines', 'state': 'Ilocos Region', 'county': 'Pangasinan', 'city': 'Alaminos', 'district': 'Poblacion', 'street': 'Pangasinan-Zambales Rd', 'postalCode': '2404'}","{'lat': 16.15019, 'lng': 119.98591}","[{'lat': 16.15023, 'lng': 119.98597}]",915,"[{'id': '700-7600-0116', 'name': 'Gas Station', 'primary': True}]",[{'id': '35'}],"[{'supplier': {'id': 'core'}, 'id': '1204180762'}]",,,,16.15019,119.98591
5,TOTAL,here:pds:place:608jx7ps-60ba16b355ff04c756926a521293554a,here:cm:ontology:petrol_gasoline_station,place,"{'label': 'TOTAL, Infanta-Alaminos Rd, 2404 Alaminos, Philippines', 'countryCode': 'PHL', 'countryName': 'Philippines', 'state': 'Ilocos Region', 'county': 'Pangasinan', 'city': 'Alaminos', 'district': 'Poblacion', 'street': 'Infanta-Alaminos Rd', 'postalCode': '2404'}","{'lat': 16.14829, 'lng': 119.9772}","[{'lat': 16.14828, 'lng': 119.97722}]",959,"[{'id': '700-7600-0116', 'name': 'Gas Station', 'primary': True}]",[{'id': '35'}],"[{'supplier': {'id': 'core'}, 'id': '1096873638'}]",,,,16.14829,119.9772
6,Total Elite Alaminos L,here:pds:place:608wdv7f-024dc468dbdd47a4a4300c16c4b54156,here:cm:ontology:petrol_gasoline_station,place,"{'label': 'Total Elite Alaminos L, Pangasinan-Zambales Rd, 2404 Alaminos, Philippines', 'countryCode': 'PHL', 'countryName': 'Philippines', 'state': 'Ilocos Region', 'county': 'Pangasinan', 'city': 'Alaminos', 'district': 'Poblacion', 'street': 'Pangasinan-Zambales Rd', 'postalCode': '2404'}","{'lat': 16.14774, 'lng': 119.97699}","[{'lat': 16.14774, 'lng': 119.97699}]",1024,"[{'id': '700-7600-0116', 'name': 'Gas Station', 'primary': True}, {'id': '600-6000-0061', 'name': 'Convenience Store'}]",,,,,,16.14774,119.97699
7,Seaoil,here:pds:place:608wdv7f-b76e0ce5c7eb437a9372dad482e54df6,here:cm:ontology:petrol_gasoline_station,place,"{'label': 'Seaoil, Pangasinan-Zambales Rd, 2404 Alaminos, Philippines', 'countryCode': 'PHL', 'countryName': 'Philippines', 'state': 'Ilocos Region', 'county': 'Pangasinan', 'city': 'Alaminos', 'district': 'Magsaysay', 'street': 'Pangasinan-Zambales Rd', 'postalCode': '2404'}","{'lat': 16.14928, 'lng': 119.98667}","[{'lat': 16.14928, 'lng': 119.98667}]",1044,"[{'id': '700-7600-0116', 'name': 'Gas Station', 'primary': True}]",[{'id': '8673'}],"[{'supplier': {'id': 'core'}, 'id': '1196687057'}]",,,,16.14928,119.98667
8,Caltex,here:pds:place:608wdv7f-31325f44b0944fa9a543968e51cbb968,here:cm:ontology:petrol_gasoline_station,place,"{'label': 'Caltex, Alaminos-Bolinao Rd, 2404 Alaminos, Philippines', 'countryCode': 'PHL', 'countryName': 'Philippines', 'state': 'Ilocos Region', 'county': 'Pangasinan', 'city': 'Alaminos', 'district': 'Pogo', 'street': 'Alaminos-Bolinao Rd', 'postalCode': '2404'}","{'lat': 16.16154, 'lng': 119.97171}","[{'lat': 16.16145, 'lng': 119.97167}]",1080,"[{'id': '700-7600-0116', 'name': 'Gas Station', 'primary': True}]",[{'id': '878'}],"[{'supplier': {'id': 'core'}, 'id': '1211238478'}]",,"[{'text': ['Mon-Thu, Sat, Sun: 06:00 - 20:00'], 'isOpen': True, 'structured': [{'start': 'T060000', 'duration': 'PT14H00M', 'recurrence': 'FREQ:DAILY;BYDAY:MO,TU,WE,TH,SA,SU'}]}]",,16.16154,119.97171
9,Landerhugh Fuel Service,here:pds:place:608jx7ps-e5371d4ed4e50c0b31721bbd99af25bc,here:cm:ontology:petrol_gasoline_station,place,"{'label': 'Landerhugh Fuel Service, Lingayen-Alaminos Rd, 2404 Alaminos, Philippines', 'countryCode': 'PHL', 'countryName': 'Philippines', 'state': 'Ilocos Region', 'county': 'Pangasinan', 'city': 'Alaminos', 'district': 'Magsaysay', 'street': 'Lingayen-Alaminos Rd', 'postalCode': '2404'}","{'lat': 16.14897, 'lng': 119.98686}","[{'lat': 16.14899, 'lng': 119.98688}]",1084,"[{'id': '700-7600-0116', 'name': 'Gas Station', 'primary': True}]",,"[{'supplier': {'id': 'core'}, 'id': '1083862251'}]",,,,16.14897,119.98686
10,Phoenix Minalin,here:pds:place:608jx7ps-f73fd810db4705d4e1034906a17ae683,here:cm:ontology:petrol_gasoline_station,place,"{'label': 'Phoenix Minalin, Jesus St, 2009 Angeles City, Philippines', 'countryCode': 'PHL', 'countryName': 'Philippines', 'state': 'Central Luzon', 'county': 'Pampanga', 'city': 'Angeles City', 'district': 'Pampang', 'street': 'Jesus St', 'postalCode': '2009'}","{'lat': 15.14022, 'lng': 120.588}","[{'lat': 15.14024, 'lng': 120.58801}]",34,"[{'id': '700-7600-0116', 'name': 'Gas Station', 'primary': True}]",[{'id': '963'}],"[{'supplier': {'id': 'core'}, 'id': '1176044616'}]",,,,15.14022,120.588
11,Caltex,here:pds:place:608wdty0-5660746a699745a7861db0b8b7b24463,here:cm:ontology:petrol_gasoline_station,place,"{'label': 'Caltex, Henson St, 2009 Angeles City, Philippines', 'countryCode': 'PHL', 'countryName': 'Philippines', 'state': 'Central Luzon', 'county': 'Pampanga', 'city': 'Angeles City', 'district': 'Pampang', 'street': 'Henson St', 'postalCode': '2009'}","{'lat': 15.14322, 'lng': 120.58822}","[{'lat': 15.1432, 'lng': 120.58828}]",361,"[{'id': '700-7600-0116', 'name': 'Gas Station', 'primary': True}, {'id': '700-7850-0122', 'name': 'Car Repair'}]",[{'id': '878'}],"[{'supplier': {'id': 'core'}, 'id': '1048342228'}]","[{'phone': [{'value': '+634553227492'}], 'www': [{'value': 'http://www.caltex.com/ph/'}, {'value': 'https://www.caltex.com/ph/en.html', 'categories': [{'id': '700-7600-0116'}]}]}]",,,15.14322,120.58822
12,Petron,here:pds:place:608xjxn4-24e54dd1b51b079708191b2a0cbafc7f,here:cm:ontology:petrol_gasoline_station,place,"{'label': 'Petron, P. Zamora, 2009 Angeles City, Philippines', 'countryCode': 'PHL', 'countryName': 'Philippines', 'state': 'Central Luzon', 'county': 'Pampanga', 'city': 'Angeles City', 'district': 'Pampang', 'street': 'P. Zamora', 'postalCode': '2009'}","{'lat': 15.14333, 'lng': 120.58655}","[{'lat': 15.14333, 'lng': 120.58655}]",393,"[{'id': '700-7600-0116', 'name': 'Gas Station', 'primary': True}]",,,[{'phone': [{'value': '+634588871721'}]}],,,15.14333,120.58655
13,Caltex Henson,here:pds:place:608wdty0-279fffc4e383474280351935c3c2e1a6,here:cm:ontology:petrol_gasoline_station,place,"{'label': 'Caltex Henson, Henson St, 2009 Angeles City, Philippines', 'countryCode': 'PHL', 'countryName': 'Philippines', 'state': 'Central Luzon', 'county': 'Pampanga', 'city': 'Angeles City', 'district': 'Santa Teresita', 'street': 'Henson St', 'postalCode': '2009'}","{'lat': 15.14354, 'lng': 120.58837}","[{'lat': 15.14354, 'lng': 120.58836}]",399,"[{'id': '700-7600-0116', 'name': 'Gas Station', 'primary': True}]",,,"[{'phone': [{'value': '+634588884269'}], 'www': [{'value': 'https://www.caltex.com'}]}]",,,15.14354,120.58837
14,Petron,here:pds:place:608xjxn4-f249b83d0bc70d8895d0b595c0049d76,here:cm:ontology:petrol_gasoline_station,place,"{'label': 'Petron, Gail, 2009 Angeles City, Philippines', 'countryCode': 'PHL', 'countryName': 'Philippines', 'state': 'Central Luzon', 'county': 'Pampanga', 'city': 'Angeles City', 'district': 'Pampang', 'street': 'Gail', 'postalCode': '2009'}","{'lat': 15.13765, 'lng': 120.58364}","[{'lat': 15.13765, 'lng': 120.58364}]",516,"[{'id': '700-7600-0116', 'name': 'Gas Station', 'primary': True}]",,,[{'phone': [{'value': '+639193490730'}]}],,,15.13765,120.58364
15,One Titan,here:pds:place:608wdty0-a90c7eeb96404c4fad2810c4a8260e26,here:cm:ontology:petrol_gasoline_station,place,"{'label': 'One Titan, Rizal, 2009 Angeles City, Philippines', 'countryCode': 'PHL', 'countryName': 'Philippines', 'state': 'Central Luzon', 'county': 'Pampanga', 'city': 'Angeles City', 'district': 'Santa Teresita', 'street': 'Rizal', 'postalCode': '2009'}","{'lat': 15.14405, 'lng': 120.59042}","[{'lat': 15.14404, 'lng': 120.59044}]",532,"[{'id': '700-7600-0116', 'name': 'Gas Station', 'primary': True}]",,"[{'supplier': {'id': 'core'}, 'id': '1205957901'}]",,,,15.14405,120.59042
16,PTT,here:pds:place:608wdtwp-233b1de92ef2470eb985ad3848aa96cf,here:cm:ontology:petrol_gasoline_station,place,"{'label': 'PTT, Rizal St, 2009 Angeles City, Philippines', 'countryCode': 'PHL', 'countryName': 'Philippines', 'state': 'Central Luzon', 'county': 'Pampanga', 'city': 'Angeles City', 'district': 'Pampang', 'street': 'Rizal St', 'postalCode': '2009'}","{'lat': 15.13545, 'lng': 120.58551}","[{'lat': 15.13544, 'lng': 120.58553}]",562,"[{'id': '700-7600-0116', 'name': 'Gas Station', 'primary': True}]",[{'id': '6998'}],"[{'supplier': {'id': 'core'}, 'id': '1097222872'}]",,,,15.13545,120.58551
17,Central Fuel,here:pds:place:608wdtwp-1a1cc46138164b7889447078d4512118,here:cm:ontology:petrol_gasoline_station,place,"{'label': 'Central Fuel, Miranda Ext, 2009 Angeles City, Philippines', 'countryCode': 'PHL', 'countryName': 'Philippines', 'state': 'Central Luzon', 'county': 'Pampanga', 'city': 'Angeles City', 'district': 'Pampang', 'street': 'Miranda Ext', 'postalCode': '2009'}","{'lat': 15.1419, 'lng': 120.58269}","[{'lat': 15.14173, 'lng': 120.58239}]",586,"[{'id': '700-7600-0116', 'name': 'Gas Station', 'primary': True}]",,,,"[{'text': ['Mon-Sun: 00:00 - 24:00'], 'isOpen': True, 'structured': [{'start': 'T000000', 'duration': 'PT24H00M', 'recurrence': 'FREQ:DAILY;BYDAY:MO,TU,WE,TH,FR,SA,SU'}]}]",,15.1419,120.58269
18,Caltex,here:pds:place:608wdty0-51c3aa7fac5f4379a51687a0d84a65ae,here:cm:ontology:petrol_gasoline_station,place,"{'label': 'Caltex, Sto. Entiero St, 2009 Angeles City, Philippines', 'countryCode': 'PHL', 'countryName': 'Philippines', 'state': 'Central Luzon', 'county': 'Pampanga', 'city': 'Angeles City', 'district': 'San Nicolas', 'street': 'Sto. Entiero St', 'postalCode': '2009'}","{'lat': 15.13527, 'lng': 120.59096}","[{'lat': 15.13527, 'lng': 120.59096}]",627,"[{'id': '700-7600-0116', 'name': 'Gas Station', 'primary': True}]",,,,,,15.13527,120.59096
19,Shell Service Bay,here:pds:place:608jx7ps-7c384f341f61090b38f0813ebb6bdcc8,here:cm:ontology:petrol_gasoline_station,place,"{'label': 'Shell Service Bay, Henson St, 2009 Angeles City, Philippines', 'countryCode': 'PHL', 'countryName': 'Philippines', 'state': 'Central Luzon', 'county': 'Pampanga', 'city': 'Angeles City', 'district': 'Santa Teresita', 'street': 'Henson St', 'postalCode': '2009'}","{'lat': 15.14562, 'lng': 120.58888}","[{'lat': 15.14563, 'lng': 120.58886}]",636,"[{'id': '700-7600-0116', 'name': 'Gas Station', 'primary': True}, {'id': '700-7850-0122', 'name': 'Car Repair'}]",[{'id': '10'}],"[{'supplier': {'id': 'core'}, 'id': '1097221635'}]",,,,15.14562,120.58888
20,Flying V,here:pds:place:608jx7ps-400d1870129b09de1b73153790484add,here:cm:ontology:petrol_gasoline_station,place,"{'label': 'Flying V, P. Oliveros St, 1870 Antipolo, Philippines', 'countryCode': 'PHL', 'countryName': 'Philippines', 'state': 'Calabarzon', 'county': 'Rizal', 'city': 'Antipolo', 'district': 'Mayamot', 'street': 'P. Oliveros St', 'postalCode': '1870'}","{'lat': 14.58763, 'lng': 121.17349}","[{'lat': 14.58777, 'lng': 121.17347}]",263,"[{'id': '700-7600-0116', 'name': 'Gas Station', 'primary': True}]",[{'id': '8672'}],"[{'supplier': {'id': 'core'}, 'id': '1130542762'}]",[{'www': [{'value': 'http://www.flying-v-gas.com/'}]}],,,14.58763,121.17349
21,Ion Matrix,here:pds:place:608wdw4v-8c0bd331e21e443a822db18968438015,here:cm:ontology:petrol_gasoline_station,place,"{'label': 'Ion Matrix, Gen. Luna St, 1870 Antipolo, Philippines', 'countryCode': 'PHL', 'countryName': 'Philippines', 'state': 'Calabarzon', 'county': 'Rizal', 'city': 'Antipolo', 'district': 'Mayamot', 'street': 'Gen. Luna St', 'postalCode': '1870'}","{'lat': 14.58782, 'lng': 121.17284}","[{'lat': 14.58782, 'lng': 121.17282}]",336,"[{'id': '700-7600-0116', 'name': 'Gas Station', 'primary': True}]",,"[{'supplier': {'id': 'core'}, 'id': '1192819862'}]",,,,14.58782,121.17284
22,Petrol/Gasoline Station,here:pds:place:608xjxn4-73c898c18ee906d1d50815c01ba92eb8,here:cm:ontology:petrol_gasoline_station,place,"{'label': 'Petrol/Gasoline Station, Martinez St, 1870 Antipolo, Philippines', 'countryCode': 'PHL', 'countryName': 'Philippines', 'state': 'Calabarzon', 'county': 'Rizal', 'city': 'Antipolo', 'district': 'Mayamot', 'street': 'Martinez St', 'postalCode': '1870'}","{'lat': 14.58707, 'lng': 121.17261}","[{'lat': 14.58707, 'lng': 121.17261}]",347,"[{'id': '700-7600-0116', 'name': 'Gas Station', 'primary': True}]",,,,,,14.58707,121.17261
23,Antipolo Petron Service Center,here:pds:place:608wdw4v-a366e3352dd34b339b0fadac32f976ed,here:cm:ontology:petrol_gasoline_station,place,"{'label': 'Antipolo Petron Service Center, P. Oliveros St 182, 1870 Antipolo, Philippines', 'countryCode': 'PHL', 'countryName': 'Philippines', 'state': 'Calabarzon', 'county': 'Rizal', 'city': 'Antipolo', 'district': 'Mayamot', 'street': 'P. Oliveros St', 'postalCode': '1870', 'houseNumber': '182'}","{'lat': 14.58752, 'lng': 121.17234}","[{'lat': 14.58765, 'lng': 121.17232}]",381,"[{'id': '700-7600-0116', 'name': 'Gas Station', 'primary': True}, {'id': '600-6200-0063', 'name': 'Department Store'}]",,,"[{'phone': [{'value': '+63286502327'}], 'www': [{'value': 'http://www.petron.com', 'categories': [{'id': '700-7600-0116'}]}]}]",,,14.58752,121.17234
24,Petron,here:pds:place:608wdw4v-354565423dd94683b60a70607f4b1c57,here:cm:ontology:petrol_gasoline_station,place,"{'label': 'Petron, P. Oliveros St, 1870 Antipolo, Philippines', 'countryCode': 'PHL', 'countryName': 'Philippines', 'state': 'Calabarzon', 'county': 'Rizal', 'city': 'Antipolo', 'district': 'Mayamot', 'street': 'P. Oliveros St', 'postalCode': '1870'}","{'lat': 14.5876, 'lng': 121.17178}","[{'lat': 14.5876, 'lng': 121.17178}]",442,"[{'id': '700-7600-0116', 'name': 'Gas Station', 'primary': True}]",[{'id': '7065'}],"[{'supplier': {'id': 'core'}, 'id': '1192819772'}]",,,,14.5876,121.17178
25,King Fuel,here:pds:place:608wdw4v-33429495ad8e4f66835638a9df41ee6e,here:cm:ontology:petrol_gasoline_station,place,"{'label': 'King Fuel, J. P. Rizal St, 1870 Antipolo, Philippines', 'countryCode': 'PHL', 'countryName': 'Philippines', 'state': 'Calabarzon', 'county': 'Rizal', 'city': 'Antipolo', 'district': 'Mayamot', 'street': 'J. P. Rizal St', 'postalCode': '1870'}","{'lat': 14.58944, 'lng': 121.17184}","[{'lat': 14.58944, 'lng': 121.17181}]",511,"[{'id': '700-7600-0116', 'name': 'Gas Station', 'primary': True}]",,"[{'supplier': {'id': 'core'}, 'id': '1192819771'}]",,,,14.58944,121.17184
26,Usa88,here:pds:place:608wdw4v-8a6e7c5dd58a4e0e97b0c633b9492e83,here:cm:ontology:petrol_gasoline_station,place,"{'label': 'Usa88, Sen. L. Sumulong Memorial Cir, 1870 Antipolo, Philippines', 'countryCode': 'PHL', 'countryName': 'Philippines', 'state': 'Calabarzon', 'county': 'Rizal', 'city': 'Antipolo', 'district': 'Mayamot', 'street': 'Sen. L. Sumulong Memorial Cir', 'postalCode': '1870'}","{'lat': 14.58773, 'lng': 121.17051}","[{'lat': 14.58773, 'lng': 121.17051}]",579,"[{'id': '700-7600-0116', 'name': 'Gas Station', 'primary': True}]",,"[{'supplier': {'id': 'core'}, 'id': '1130543132'}]",[{'phone': [{'value': '+63286508356'}]}],,,14.58773,121.17051
27,Shell,here:pds:place:608wdw4v-bcbb4af3bbff4d23a24f7706185b6f71,here:cm:ontology:petrol_gasoline_station,place,"{'label': 'Shell, Sen. L. Sumulong Memorial Cir, 1870 Antipolo, Philippines', 'countryCode': 'PHL', 'countryName': 'Philippines', 'state': 'Calabarzon', 'county': 'Rizal', 'city': 'Antipolo', 'district': 'Mayamot', 'street': 'Sen. L. Sumulong Memorial Cir', 'postalCode': '1870'}","{'lat': 14.58758, 'lng': 121.17033}","[{'lat': 14.58757, 'lng': 121.17035}]",596,"[{'id': '700-7600-0116', 'name': 'Gas Station', 'primary': True}]",[{'id': '10'}],"[{'supplier': {'id': 'core'}, 'id': '1192819774'}]","[{'www': [{'value': 'http://www.shell.com.ph/'}, {'value': 'https://find.shell.com/ph/fuel/12569743-sh-oliveros-antipolo'}], 'email': [{'value': 'shellcustomercare@shell.com'}]}]",,,14.58758,121.17033
28,Petro Gazz,here:pds:place:608wdw5j-24ea4b5bbe344e2c80c0aa3a7ef6c8ea,here:cm:ontology:petrol_gasoline_station,place,"{'label': 'Petro Gazz, J. P. Rizal St, 1870 Antipolo, Philippines', 'countryCode': 'PHL', 'countryName': 'Philippines', 'state': 'Calabarzon', 'county': 'Rizal', 'city': 'Antipolo', 'district': 'Mayamot', 'street': 'J. P. Rizal St', 'postalCode': '1870'}","{'lat': 14.59091, 'lng': 121.17199}","[{'lat': 14.59091, 'lng': 121.17185}]",605,"[{'id': '700-7600-0116', 'name': 'Gas Station', 'primary': True}]",,"[{'supplier': {'id': 'core'}, 'id': '1203934048'}]",,,,14.59091,121.17199
29,Shell,here:pds:place:608wdw4v-c3d7216903034ad7ac97fe8a5edb8afd,here:cm:ontology:petrol_gasoline_station,place,"{'label': 'Shell, P. Oliveros St, 1870 Antipolo, Philippines', 'countryCode': 'PHL', 'countryName': 'Philippines', 'state': 'Calabarzon', 'county': 'Rizal', 'city': 'Antipolo', 'district': 'Mayamot', 'street': 'P. Oliveros St', 'postalCode': '1870'}","{'lat': 14.58735, 'lng': 121.17021}","[{'lat': 14.58735, 'lng': 121.17021}]",606,"[{'id': '700-7600-0116', 'name': 'Gas Station', 'primary': True}]",,,"[{'phone': [{'value': '+63288788888'}], 'www': [{'value': 'https://find.shell.com/ph/fuel/12569743-sh-oliveros-antipolo'}]}]","[{'text': ['Mon-Sun: 00:00 - 24:00'], 'isOpen': True, 'structured': [{'start': 'T000000', 'duration': 'PT24H00M', 'recurrence': 'FREQ:DAILY;BYDAY:MO,TU,WE,TH,FR,SA,SU'}]}]",,14.58735,121.17021
30,Prycegas,here:pds:place:608jx7ps-a047402e7db60f2c98ba190f4bff80b3,here:cm:ontology:petrol_gasoline_station,place,"{'label': 'Prycegas, San Juan St, 6100 Bacolod City, Philippines', 'countryCode': 'PHL', 'countryName': 'Philippines', 'state': 'Western Visayas', 'county': 'Negros Occidental', 'city': 'Bacolod City', 'district': 'Barangay 35 Pob.', 'street': 'San Juan St', 'postalCode': '6100'}","{'lat': 10.67861, 'lng': 122.94907}","[{'lat': 10.67859, 'lng': 122.9491}]",376,"[{'id': '700-7600-0116', 'name': 'Gas Station', 'primary': True}, {'id': '600-6900-0099', 'name': 'General Merchandise'}]",,"[{'supplier': {'id': 'core'}, 'id': '1135226059'}]",,,,10.67861,122.94907
31,Caltex,here:pds:place:608jx7ps-731c2d3b66cb0e5074fe978056557e9b,here:cm:ontology:petrol_gasoline_station,place,"{'label': 'Caltex, Gatuslao St, 6100 Bacolod City, Philippines', 'countryCode': 'PHL', 'countryName': 'Philippines', 'state': 'Western Visayas', 'county': 'Negros Occidental', 'city': 'Bacolod City', 'district': 'Barangay 15 Pob.', 'street': 'Gatuslao St', 'postalCode': '6100'}","{'lat': 10.67243, 'lng': 122.94882}","[{'lat': 10.67243, 'lng': 122.94882}]",496,"[{'id': '700-7600-0116', 'name': 'Gas Station', 'primary': True}]",[{'id': '878'}],"[{'supplier': {'id': 'core'}, 'id': '1135222020'}]","[{'phone': [{'value': '+633434346462'}], 'www': [{'value': 'https://www.caltex.com'}]}]","[{'text': ['Mon-Thu, Sat, Sun: 06:00 - 20:00'], 'isOpen': True, 'structured': [{'start': 'T060000', 'duration': 'PT14H00M', 'recurrence': 'FREQ:DAILY;BYDAY:MO,TU,WE,TH,SA,SU'}]}]",,10.67243,122.94882
32,Petron,here:pds:place:608jx7ps-42d7f96b9369010527e1ecf0488c3b73,here:cm:ontology:petrol_gasoline_station,place,"{'label': 'Petron, Burgos St, 6100 Bacolod City, Philippines', 'countryCode': 'PHL', 'countryName': 'Philippines', 'state': 'Western Visayas', 'county': 'Negros Occidental', 'city': 'Bacolod City', 'district': 'Barangay 15 Pob.', 'street': 'Burgos St', 'postalCode': '6100'}","{'lat': 10.67187, 'lng': 122.94973}","[{'lat': 10.6719, 'lng': 122.94974}]",505,"[{'id': '700-7600-0116', 'name': 'Gas Station', 'primary': True}]",[{'id': '7065'}],"[{'supplier': {'id': 'core'}, 'id': '1135224596'}, {'supplier': {'id': 'core'}, 'id': '1135224783'}]",,,,10.67187,122.94973
33,Flying V Gatuslao,here:pds:place:608w9zkt-bff9b83c01474206a0ee402ba0449bec,here:cm:ontology:petrol_gasoline_station,place,"{'label': 'Flying V Gatuslao, Burgos St, 6100 Bacolod City, Philippines', 'countryCode': 'PHL', 'countryName': 'Philippines', 'state': 'Western Visayas', 'county': 'Negros Occidental', 'city': 'Bacolod City', 'district': 'Barangay 15 Pob.', 'street': 'Burgos St', 'postalCode': '6100'}","{'lat': 10.67237, 'lng': 122.94863}","[{'lat': 10.67237, 'lng': 122.94863}]",514,"[{'id': '700-7600-0116', 'name': 'Gas Station', 'primary': True}]",,,,,,10.67237,122.94863
34,Petron Barangay 11,here:pds:place:608w9zkt-df500ac1d3a14540bdbdd820e41fdd75,here:cm:ontology:petrol_gasoline_station,place,"{'label': 'Petron Barangay 11, Locsin St, 6100 Bacolod City, Philippines', 'countryCode': 'PHL', 'countryName': 'Philippines', 'state': 'Western Visayas', 'county': 'Negros Occidental', 'city': 'Bacolod City', 'district': 'Barangay 15 Pob.', 'street': 'Locsin St', 'postalCode': '6100'}","{'lat': 10.67166, 'lng': 122.94972}","[{'lat': 10.67166, 'lng': 122.94972}]",527,"[{'id': '700-7600-0116', 'name': 'Gas Station', 'primary': True}]",,,,,,10.67166,122.94972
35,TOTAL,here:pds:place:608w9zkt-a40c92e05d7247f6a2e7980fcc5fa4a1,here:cm:ontology:petrol_gasoline_station,place,"{'label': 'TOTAL, Gatuslao St, 6100 Bacolod City, Philippines', 'countryCode': 'PHL', 'countryName': 'Philippines', 'state': 'Western Visayas', 'county': 'Negros Occidental', 'city': 'Bacolod City', 'district': 'Barangay 15 Pob.', 'street': 'Gatuslao St', 'postalCode': '6100'}","{'lat': 10.6718, 'lng': 122.949}","[{'lat': 10.67197, 'lng': 122.94862}]",546,"[{'id': '700-7600-0116', 'name': 'Gas Station', 'primary': True}]",[{'id': '35'}],"[{'supplier': {'id': 'core'}, 'id': '1220020672'}]",,"[{'text': ['Mon-Sun: 00:00 - 24:00'], 'isOpen': True, 'structured': [{'start': 'T000000', 'duration': 'PT24H00M', 'recurrence': 'FREQ:DAILY;BYDAY:MO,TU,WE,TH,FR,SA,SU'}]}]",,10.6718,122.949
36,"Phoenix San Sebastian, Bacolod",here:pds:place:608jx7ps-f1dd49f75eec085dde3a95fcf90029e3,here:cm:ontology:petrol_gasoline_station,place,"{'label': 'Phoenix San Sebastian, Bacolod, 6100 Bacolod City, Philippines', 'countryCode': 'PHL', 'countryName': 'Philippines', 'state': 'Western Visayas', 'county': 'Negros Occidental', 'city': 'Bacolod City', 'district': 'Barangay 35 Pob.', 'postalCode': '6100'}","{'lat': 10.67737, 'lng': 122.9465}","[{'lat': 10.67737, 'lng': 122.9465}]",552,"[{'id': '700-7600-0116', 'name': 'Gas Station', 'primary': True}]",[{'id': '963'}],,,,,10.67737,122.9465
37,Flying V,here:pds:place:608jx7ps-dce735e1f545011fa6cc44be8481500f,here:cm:ontology:petrol_gasoline_station,place,"{'label': 'Flying V, Gatuslao St, 6100 Bacolod City, Philippines', 'countryCode': 'PHL', 'countryName': 'Philippines', 'state': 'Western Visayas', 'county': 'Negros Occidental', 'city': 'Bacolod City', 'district': 'Barangay 15 Pob.', 'street': 'Gatuslao St', 'postalCode': '6100'}","{'lat': 10.67187, 'lng': 122.94867}","[{'lat': 10.6719, 'lng': 122.94858}]",557,"[{'id': '700-7600-0116', 'name': 'Gas Station', 'primary': True}]",[{'id': '8672'}],"[{'supplier': {'id': 'core'}, 'id': '1135224575'}]",,,,10.67187,122.94867
38,Petron,here:pds:place:608w9zkv-4ee865a27f184cbd8664473a167a54e5,here:cm:ontology:petrol_gasoline_station,place,"{'label': 'Petron, Lacson St, 6100 Bacolod City, Philippines', 'countryCode': 'PHL', 'countryName': 'Philippines', 'state': 'Western Visayas', 'county': 'Negros Occidental', 'city': 'Bacolod City', 'district': 'Barangay 9 Pob.', 'street': 'Lacson St', 'postalCode': '6100'}","{'lat': 10.68046, 'lng': 122.95483}","[{'lat': 10.68045, 'lng': 122.95485}]",613,"[{'id': '700-7600-0116', 'name': 'Gas Station', 'primary': True}]",[{'id': '7065'}],"[{'supplier': {'id': 'core'}, 'id': '1220020656'}]",,,,10.68046,122.95483
39,Shell,here:pds:place:608jx7ps-2391c6188b2602e3f67493047a214a8e,here:cm:ontology:petrol_gasoline_station,place,"{'label': 'Shell, Bacolod North Rd, 6100 Bacolod City, Philippines', 'countryCode': 'PHL', 'countryName': 'Philippines', 'state': 'Western Visayas', 'county': 'Negros Occidental', 'city': 'Bacolod City', 'district': 'Barangay 9 Pob.', 'street': 'Bacolod North Rd', 'postalCode': '6100'}","{'lat': 10.68131, 'lng': 122.95522}","[{'lat': 10.68131, 'lng': 122.95522}]",714,"[{'id': '700-7600-0116', 'name': 'Gas Station', 'primary': True}, {'id': '600-6000-0061', 'name': 'Convenience Store'}, {'id': '700-7850-0122', 'name': 'Car Repair'}]",[{'id': '10'}],"[{'supplier': {'id': 'core'}, 'id': '1118544757'}, {'supplier': {'id': 'core'}, 'id': '1118544758'}, {'supplier': {'id': 'core'}, 'id': '1135223351'}, {'supplier': {'id': 'core'}, 'id': '1176158903'}]","[{'phone': [{'value': '+633434320185'}, {'value': '+633434350585', 'categories': [{'id': '700-7600-0116'}]}], 'www': [{'value': 'http://www.shell.com.ph/', 'categories': [{'id': '700-7600-0116'}]}, {'value': 'https://find.shell.com/ph/fuel/10022004-sh-lacson-18th-bacolod', 'categories': [{'id': '700-7600-0116'}]}], 'email': [{'value': 'shellcustomercare@shell.com', 'categories': [{'id': '700-7600-0116'}]}]}]","[{'categories': [{'id': '700-7600-0116'}], 'text': ['Mon-Sun: 06:00 - 22:00'], 'isOpen': True, 'structured': [{'start': 'T060000', 'duration': 'PT16H00M', 'recurrence': 'FREQ:DAILY;BYDAY:MO,TU,WE,TH,FR,SA,SU'}]}]",,10.68131,122.95522
40,Petron,here:pds:place:608xjxn4-dc2ddc96deba0c6bb12ca6d650ddf6ee,here:cm:ontology:petrol_gasoline_station,place,"{'label': 'Petron, Gen. F. Evangelista St, 4102 Bacoor, Philippines', 'countryCode': 'PHL', 'countryName': 'Philippines', 'state': 'Calabarzon', 'county': 'Cavite', 'city': 'Bacoor', 'district': 'Daang Bukid', 'street': 'Gen. F. Evangelista St', 'postalCode': '4102'}","{'lat': 14.45959, 'lng': 120.94614}","[{'lat': 14.45974, 'lng': 120.94614}]",661,"[{'id': '700-7600-0116', 'name': 'Gas Station', 'primary': True}]",,,"[{'phone': [{'value': '+634634347817'}], 'www': [{'value': 'http://www.petron.com'}]}]",,,14.45959,120.94614
41,Petron,here:pds:place:608wdw42-bd38878595954e08a088a5b9c6388e79,here:cm:ontology:petrol_gasoline_station,place,"{'label': 'Petron, Gen. F. Evangelista St, 4102 Bacoor, Philippines', 'countryCode': 'PHL', 'countryName': 'Philippines', 'state': 'Calabarzon', 'county': 'Cavite', 'city': 'Bacoor', 'district': 'Daang Bukid', 'street': 'Gen. F. Evangelista St', 'postalCode': '4102'}","{'lat': 14.45974, 'lng': 120.94675}","[{'lat': 14.45974, 'lng': 120.94675}]",728,"[{'id': '700-7600-0116', 'name': 'Gas Station', 'primary': True}, {'id': '600-6000-0061', 'name': 'Convenience Store'}, {'id': '700-7850-0122', 'name': 'Car Repair'}]",[{'id': '7065'}],"[{'supplier': {'id': 'core'}, 'id': '1049292873'}, {'supplier': {'id': 'core'}, 'id': '1049292874'}, {'supplier': {'id': 'core'}, 'id': '1049292875'}, {'supplier': {'id': 'core'}, 'id': '1159530992'}]","[{'phone': [{'value': '+634634170937', 'categories': [{'id': '700-7600-0116'}]}], 'mobile': [{'value': '+639498324948'}], 'www': [{'value': 'http://www.petron.com/', 'categories': [{'id': '700-7600-0116'}]}]}]",,,14.45974,120.94675
42,Total Car Care,here:pds:place:608jx7ps-71a35d71eac80eda86e7c91fe4db4ed6,here:cm:ontology:petrol_gasoline_station,place,"{'label': 'Total Car Care, Gen. F. Evangelista St, 4102 Bacoor, Philippines', 'countryCode': 'PHL', 'countryName': 'Philippines', 'state': 'Calabarzon', 'county': 'Cavite', 'city': 'Bacoor', 'district': 'Banalo', 'street': 'Gen. F. Evangelista St', 'postalCode': '4102'}","{'lat': 14.45764, 'lng': 120.93332}","[{'lat': 14.45789, 'lng': 120.93329}]",747,"[{'id': '700-7850-0122', 'name': 'Car Repair', 'primary': True}, {'id': '700-7600-0116', 'name': 'Gas Station'}, {'id': '700-7850-0121', 'name': 'Car Wash - Detailing'}]",,"[{'supplier': {'id': 'core'}, 'id': '1136046119'}]",,,,14.45764,120.93332
43,TOTAL,here:pds:place:608wdtfp-07a010f36ce74c9db3d124de83f0beac,here:cm:ontology:petrol_gasoline_station,place,"{'label': 'TOTAL, Gen. F. Evangelista St, 4102 Bacoor, Philippines', 'countryCode': 'PHL', 'countryName': 'Philippines', 'state': 'Calabarzon', 'county': 'Cavite', 'city': 'Bacoor', 'district': 'Banalo', 'street': 'Gen. F. Evangelista St', 'postalCode': '4102'}","{'lat': 14.458, 'lng': 120.933}","[{'lat': 14.45786, 'lng': 120.93304}]",771,"[{'id': '700-7600-0116', 'name': 'Gas Station', 'primary': True}, {'id': '600-6000-0061', 'name': 'Convenience Store'}]",[{'id': '35'}],"[{'supplier': {'id': 'core'}, 'id': '1049289424'}, {'supplier': {'id': 'core'}, 'id': '1049289425'}, {'supplier': {'id': 'core'}, 'id': '1058326531'}]",,"[{'categories': [{'id': '700-7600-0116'}], 'text': ['Mon-Sun: 00:00 - 24:00'], 'isOpen': True, 'structured': [{'start': 'T000000', 'duration': 'PT24H00M', 'recurrence': 'FREQ:DAILY;BYDAY:MO,TU,WE,TH,FR,SA,SU'}]}]",,14.458,120.933
44,Jetti,here:pds:place:608wdtfp-8d76513ee14c40b58fdd19119079e213,here:cm:ontology:petrol_gasoline_station,place,"{'label': 'Jetti, Gen. F. Evangelista St, 4102 Bacoor, Philippines', 'countryCode': 'PHL', 'countryName': 'Philippines', 'state': 'Calabarzon', 'county': 'Cavite', 'city': 'Bacoor', 'district': 'Banalo', 'street': 'Gen. F. Evangelista St', 'postalCode': '4102'}","{'lat': 14.45798, 'lng': 120.93297}","[{'lat': 14.45785, 'lng': 120.93298}]",774,"[{'id': '700-7600-0116', 'name': 'Gas Station', 'primary': True}]",,,,,,14.45798,120.93297
45,Uno Fuel Gas Station,here:pds:place:608wdw42-cd3e693c1c1f4f379e12d997842b0b79,here:cm:ontology:petrol_gasoline_station,place,"{'label': 'Uno Fuel Gas Station, Gen. F. Evangelista St, 4102 Bacoor, Philippines', 'countryCode': 'PHL', 'countryName': 'Philippines', 'state': 'Calabarzon', 'county': 'Cavite', 'city': 'Bacoor', 'district': 'Daang Bukid', 'street': 'Gen. F. Evangelista St', 'postalCode': '4102'}","{'lat': 14.45974, 'lng': 120.94853}","[{'lat': 14.45992, 'lng': 120.94851}]",919,"[{'id': '700-7600-0116', 'name': 'Gas Station', 'primary': True}]",,,,,,14.45974,120.94853
46,Flying V,here:pds:place:608wdw42-8cacb571af174e6091f416e27cf30f06,here:cm:ontology:petrol_gasoline_station,place,"{'label': 'Flying V, Gen. F. Evangelista St, 4102 Bacoor, Philippines', 'countryCode': 'PHL', 'countryName': 'Philippines', 'state': 'Calabarzon', 'county': 'Cavite', 'city': 'Bacoor', 'district': 'Daang Bukid', 'street': 'Gen. F. Evangelista St', 'postalCode': '4102'}","{'lat': 14.46, 'lng': 120.94878}","[{'lat': 14.45995, 'lng': 120.94879}]",947,"[{'id': '700-7600-0116', 'name': 'Gas Station', 'primary': True}]",[{'id': '8672'}],"[{'supplier': {'id': 'core'}, 'id': '1202017721'}]",,,,14.46,120.94878
47,Uno Fuel Gas Station,here:pds:place:608wdtfp-3f5cd00920aa4671b1079b0623e69c32,here:cm:ontology:petrol_gasoline_station,place,"{'label': 'Uno Fuel Gas Station, Tirona Hwy, 4102 Bacoor, Philippines', 'countryCode': 'PHL', 'countryName': 'Philippines', 'state': 'Calabarzon', 'county': 'Cavite', 'city': 'Bacoor', 'district': 'Mabolo II', 'street': 'Tirona Hwy', 'postalCode': '4102'}","{'lat': 14.44939, 'lng': 120.93361}","[{'lat': 14.44939, 'lng': 120.93361}]",1312,"[{'id': '700-7600-0116', 'name': 'Gas Station', 'primary': True}]",,,,,,14.44939,120.93361
48,Unioil,here:pds:place:608wdw40-0163d871d67543b289ceec3dc20ca321,here:cm:ontology:petrol_gasoline_station,place,"{'label': 'Unioil, 4102 Bacoor, Philippines', 'countryCode': 'PHL', 'countryName': 'Philippines', 'state': 'Calabarzon', 'county': 'Cavite', 'city': 'Bacoor', 'district': 'Habay I', 'postalCode': '4102'}","{'lat': 14.44755, 'lng': 120.94626}","[{'lat': 14.44755, 'lng': 120.94626}]",1484,"[{'id': '700-7600-0116', 'name': 'Gas Station', 'primary': True}]",,,[{'phone': [{'value': '+634634341778'}]}],,,14.44755,120.94626
49,Shell,here:pds:place:608wdw40-6d62641376ae4e5f8893d1ed38784bd3,here:cm:ontology:petrol_gasoline_station,place,"{'label': 'Shell, Tirona Hwy, 4102 Bacoor, Philippines', 'countryCode': 'PHL', 'countryName': 'Philippines', 'state': 'Calabarzon', 'county': 'Cavite', 'city': 'Bacoor', 'district': 'Habay I', 'street': 'Tirona Hwy', 'postalCode': '4102'}","{'lat': 14.4471, 'lng': 120.9453}","[{'lat': 14.44698, 'lng': 120.94528}]",1486,"[{'id': '700-7600-0116', 'name': 'Gas Station', 'primary': True}, {'id': '600-6000-0061', 'name': 'Convenience Store'}, {'id': '700-7850-0122', 'name': 'Car Repair'}]",[{'id': '10'}],"[{'supplier': {'id': 'core'}, 'id': '1058318415'}, {'supplier': {'id': 'core'}, 'id': '1058318416'}, {'supplier': {'id': 'core'}, 'id': '1058318417'}]","[{'phone': [{'value': '+634634344461', 'categories': [{'id': '700-7600-0116'}]}, {'value': '+634634345088'}], 'www': [{'value': 'http://www.shell.com.ph/', 'categories': [{'id': '700-7600-0116'}]}, {'value': 'https://find.shell.com/ph/fuel/10021598-sh-tirona-habay-bacoor', 'categories': [{'id': '700-7600-0116'}]}], 'email': [{'value': 'shellcustomercare@shell.com', 'categories': [{'id': '700-7600-0116'}]}]}]",,,14.4471,120.9453
50,Caltex,here:pds:place:608jx7ps-624d0394dc34080e3bdae320457a0456,here:cm:ontology:petrol_gasoline_station,place,"{'label': 'Caltex, 6102 Pulupandan, Philippines', 'countryCode': 'PHL', 'countryName': 'Philippines', 'state': 'Western Visayas', 'county': 'Negros Occidental', 'city': 'Pulupandan', 'district': 'Culo', 'postalCode': '6102'}","{'lat': 10.53806, 'lng': 122.83668}","[{'lat': 10.53814, 'lng': 122.83685}]",235,"[{'id': '700-7600-0116', 'name': 'Gas Station', 'primary': True}]",[{'id': '878'}],"[{'supplier': {'id': 'core'}, 'id': '1174509607'}]",,"[{'text': ['Mon-Thu, Sat, Sun: 05:00 - 21:00'], 'isOpen': True, 'structured': [{'start': 'T050000', 'duration': 'PT16H00M', 'recurrence': 'FREQ:DAILY;BYDAY:MO,TU,WE,TH,SA,SU'}]}]",,10.53806,122.83668
51,Shell,here:pds:place:608jx7ps-c14b5a9f95ba0b86eaef4017f95504bc,here:cm:ontology:petrol_gasoline_station,place,"{'label': 'Shell, Araneta St, 6101 Bago City, Philippines', 'countryCode': 'PHL', 'countryName': 'Philippines', 'state': 'Western Visayas', 'county': 'Negros Occidental', 'city': 'Bago City', 'district': 'Poblacion', 'street': 'Araneta St', 'postalCode': '6101'}","{'lat': 10.53869, 'lng': 122.83866}","[{'lat': 10.5387, 'lng': 122.83876}]",342,"[{'id': '700-7600-0116', 'name': 'Gas Station', 'primary': True}]",[{'id': '10'}],,,,,10.53869,122.83866
52,Shell,here:pds:place:608w9z7g-ed3caf3a774b44a3b023aa2bbfeb249b,here:cm:ontology:petrol_gasoline_station,place,"{'label': 'Shell, Araneta St, 6101 Bago City, Philippines', 'countryCode': 'PHL', 'countryName': 'Philippines', 'state': 'Western Visayas', 'county': 'Negros Occidental', 'city': 'Bago City', 'district': 'Poblacion', 'street': 'Araneta St', 'postalCode': '6101'}","{'lat': 10.53894, 'lng': 122.83882}","[{'lat': 10.53875, 'lng': 122.83889}]",347,"[{'id': '700-7600-0116', 'name': 'Gas Station', 'primary': True}, {'id': '100-1000-0001', 'name': 'Casual Dining'}, {'id': '600-6000-0061', 'name': 'Convenience Store'}]",[{'id': '6558'}],"[{'supplier': {'id': 'core'}, 'id': '1174510885'}]","[{'phone': [{'value': '+63288788888'}, {'value': '+633484610125'}], 'www': [{'value': 'https://find.shell.com/ph/fuel/10022018-sh-araneta-natl-hway-bago', 'categories': [{'id': '600-6000-0061'}, {'id': '700-7600-0116'}]}, {'value': 'https://find.shell.com/ph/fuel/10022018-sh-araneta-natl-hway-bago-coss'}]}]","[{'categories': [{'id': '700-7600-0116'}], 'text': ['Mon-Sun: 05:00 - 22:00'], 'isOpen': True, 'structured': [{'start': 'T050000', 'duration': 'PT17H00M', 'recurrence': 'FREQ:DAILY;BYDAY:MO,TU,WE,TH,FR,SA,SU'}]}]",,10.53894,122.83882
53,Yamaha Gasoline Station,here:pds:place:608w9z7g-690bb05deb174aa384a02cda9a1fdeb7,here:cm:ontology:petrol_gasoline_station,place,"{'label': 'Yamaha Gasoline Station, 6102 Pulupandan, Philippines', 'countryCode': 'PHL', 'countryName': 'Philippines', 'state': 'Western Visayas', 'county': 'Negros Occidental', 'city': 'Pulupandan', 'district': 'Ubay', 'postalCode': '6102'}","{'lat': 10.53289, 'lng': 122.8383}","[{'lat': 10.53285, 'lng': 122.83826}]",835,"[{'id': '700-7600-0116', 'name': 'Gas Station', 'primary': True}]",,"[{'supplier': {'id': 'core'}, 'id': '1192406226'}]",,"[{'text': ['Mon-Sun: 08:00 - 20:00'], 'isOpen': True, 'structured': [{'start': 'T080000', 'duration': 'PT12H00M', 'recurrence': 'FREQ:DAILY;BYDAY:MO,TU,WE,TH,FR,SA,SU'}]}]",,10.53289,122.8383
54,Sea Oil,here:pds:place:608jx7ps-3aaa885e39660f01e4284a37dd5194d1,here:cm:ontology:petrol_gasoline_station,place,"{'label': 'Sea Oil, Bacolod South by-Pass Rd, 6102 Pulupandan, Philippines', 'countryCode': 'PHL', 'countryName': 'Philippines', 'state': 'Western Visayas', 'county': 'Negros Occidental', 'city': 'Pulupandan', 'district': 'Ubay', 'street': 'Bacolod South by-Pass Rd', 'postalCode': '6102'}","{'lat': 10.52537, 'lng': 122.84074}","[{'lat': 10.52538, 'lng': 122.84072}]",1713,"[{'id': '700-7600-0116', 'name': 'Gas Station', 'primary': True}]",[{'id': '8673'}],"[{'supplier': {'id': 'core'}, 'id': '1118541846'}]",,,,10.52537,122.84074
55,Velomaxx,here:pds:place:608jx7ps-cf8ee93e41e501a6fe524b85ebe80749,here:cm:ontology:petrol_gasoline_station,place,"{'label': 'Velomaxx, Bacolod South by-Pass Rd, 6102 Pulupandan, Philippines', 'countryCode': 'PHL', 'countryName': 'Philippines', 'state': 'Western Visayas', 'county': 'Negros Occidental', 'city': 'Pulupandan', 'district': 'Ubay', 'street': 'Bacolod South by-Pass Rd', 'postalCode': '6102'}","{'lat': 10.52301, 'lng': 122.83935}","[{'lat': 10.52302, 'lng': 122.83933}]",1928,"[{'id': '700-7600-0116', 'name': 'Gas Station', 'primary': True}]",,"[{'supplier': {'id': 'core'}, 'id': '1118542005'}]",,,,10.52301,122.83935
56,Shell,here:pds:place:608w9z7g-c0ae3c2e5ab14be2b884e183ff258e28,here:cm:ontology:petrol_gasoline_station,place,"{'label': 'Shell, Bacolod South Rd, 6103 Valladolid, Philippines', 'countryCode': 'PHL', 'countryName': 'Philippines', 'state': 'Western Visayas', 'county': 'Negros Occidental', 'city': 'Valladolid', 'district': 'Mabini', 'street': 'Bacolod South Rd', 'postalCode': '6103'}","{'lat': 10.5074, 'lng': 122.8318}","[{'lat': 10.50749, 'lng': 122.83157}]",3652,"[{'id': '700-7600-0116', 'name': 'Gas Station', 'primary': True}, {'id': '600-6000-0061', 'name': 'Convenience Store'}]",[{'id': '10'}],"[{'supplier': {'id': 'core'}, 'id': '1220102949'}]","[{'phone': [{'value': '+63288788888'}, {'value': '+633434365097'}], 'www': [{'value': 'http://www.shell.com.ph/', 'categories': [{'id': '700-7600-0116'}]}, {'value': 'https://find.shell.com/ph/fuel/12344649-sh-m-valladolid-neg-occ', 'categories': [{'id': '700-7600-0116'}]}, {'value': 'https://find.shell.com/ph/fuel/12344649-sh-m-valladolid-neg-occ-doss'}], 'email': [{'value': 'shellcustomercare@shell.com', 'categories': [{'id': '700-7600-0116'}]}]}]","[{'categories': [{'id': '700-7600-0116'}], 'text': ['Mon-Sun: 06:00 - 20:00'], 'isOpen': True, 'structured': [{'start': 'T060000', 'duration': 'PT14H00M', 'recurrence': 'FREQ:DAILY;BYDAY:MO,TU,WE,TH,FR,SA,SU'}]}]",,10.5074,122.8318
57,Net Fuel,here:pds:place:608w9zk5-bdba3aa70ba1f0ec99143af56123888f,here:cm:ontology:petrol_gasoline_station,place,"{'label': 'Net Fuel, Bacolod South Rd, 6101 Bago City, Philippines', 'countryCode': 'PHL', 'countryName': 'Philippines', 'state': 'Western Visayas', 'county': 'Negros Occidental', 'city': 'Bago City', 'district': 'Sampinit', 'street': 'Bacolod South Rd', 'postalCode': '6101'}","{'lat': 10.55155, 'lng': 122.86811}","[{'lat': 10.55153, 'lng': 122.86812}]",3755,"[{'id': '700-7600-0116', 'name': 'Gas Station', 'primary': True}]",,"[{'supplier': {'id': 'core'}, 'id': '1220128587'}]",,,,10.55155,122.86811
58,Petron,here:pds:place:60860lbi-527f5d37ea2007064b1b9dc373b8551c,here:cm:ontology:petrol_gasoline_station,place,"{'label': 'Petron, Alvarez St, 6102 Pulupandan, Philippines', 'countryCode': 'PHL', 'countryName': 'Philippines', 'state': 'Western Visayas', 'county': 'Negros Occidental', 'city': 'Pulupandan', 'district': 'Barangay Zone 3 Pob.', 'street': 'Alvarez St', 'postalCode': '6102'}","{'lat': 10.52068, 'lng': 122.80135}","[{'lat': 10.52076, 'lng': 122.80129}]",4339,"[{'id': '700-7600-0116', 'name': 'Gas Station', 'primary': True}]",[{'id': '7065'}],,,,,10.52068,122.80135
59,PTSC,here:pds:place:608jx7ps-8448e365b8f9010ef441f73f8518691b,here:cm:ontology:petrol_gasoline_station,place,"{'label': 'PTSC, 713, 6102 Pulupandan, Philippines', 'countryCode': 'PHL', 'countryName': 'Philippines', 'state': 'Western Visayas', 'county': 'Negros Occidental', 'city': 'Pulupandan', 'district': 'Barangay Zone 1 Pob.', 'street': '713', 'postalCode': '6102'}","{'lat': 10.51825, 'lng': 122.80226}","[{'lat': 10.51827, 'lng': 122.80228}]",4395,"[{'id': '700-7600-0116', 'name': 'Gas Station', 'primary': True}]",,"[{'supplier': {'id': 'core'}, 'id': '1175527741'}]",,,,10.51825,122.80226
60,Caltex,here:pds:place:608wdvv2-7a3a03487e6e436097406bd5b5da6cc5,here:cm:ontology:petrol_gasoline_station,place,"{'label': 'Caltex, Otek St, 2600 Baguio City, Philippines', 'countryCode': 'PHL', 'countryName': 'Philippines', 'state': 'Cordillera Administrative Region', 'county': 'Benguet', 'city': 'Baguio City', 'district': 'Harrison-Claudio Carantes', 'street': 'Otek St', 'postalCode': '2600'}","{'lat': 16.41301, 'lng': 120.59412}","[{'lat': 16.41301, 'lng': 120.59412}]",146,"[{'id': '700-7600-0116', 'name': 'Gas Station', 'primary': True}]",[{'id': '878'}],"[{'supplier': {'id': 'core'}, 'id': '1038964083'}]","[{'phone': [{'value': '+637453043228'}, {'value': '0917 506 8709'}], 'mobile': [{'value': '+639175068709'}], 'www': [{'value': 'https://www.caltex.com'}], 'email': [{'value': 'caltexbrand@chevron.com'}]}]",,,16.41301,120.59412
61,Shell,here:pds:place:608wdvv2-732a137a05084fa68dbe145ae6c020e4,here:cm:ontology:petrol_gasoline_station,place,"{'label': 'Shell, Abanao St, 2600 Baguio City, Philippines', 'countryCode': 'PHL', 'countryName': 'Philippines', 'state': 'Cordillera Administrative Region', 'county': 'Benguet', 'city': 'Baguio City', 'district': 'Malcolm Square-Perfecto', 'street': 'Abanao St', 'postalCode': '2600'}","{'lat': 16.41363, 'lng': 120.59297}","[{'lat': 16.41382, 'lng': 120.59298}]",192,"[{'id': '700-7600-0116', 'name': 'Gas Station', 'primary': True}, {'id': '600-6000-0061', 'name': 'Convenience Store'}]",[{'id': '10'}],"[{'supplier': {'id': 'core'}, 'id': '1038964216'}]","[{'phone': [{'value': '+637484241225', 'categories': [{'id': '700-7600-0116'}]}, {'value': '+637484246870'}], 'www': [{'value': 'http://www.shell.com.ph/', 'categories': [{'id': '700-7600-0116'}]}, {'value': 'https://find.shell.com/ph/fuel/10021486-sh-abanao-rd-baguio-city'}], 'email': [{'value': 'shellcustomercare@shell.com', 'categories': [{'id': '700-7600-0116'}]}]}]","[{'categories': [{'id': '700-7600-0116'}], 'text': ['Mon-Sun: 00:00 - 24:00'], 'isOpen': True, 'structured': [{'start': 'T000000', 'duration': 'PT24H00M', 'recurrence': 'FREQ:DAILY;BYDAY:MO,TU,WE,TH,FR,SA,SU'}]}]",,16.41363,120.59297
62,TOTAL,here:pds:place:608wdvv2-a3d5a7deee254bbba8e1fb85d2fac837,here:cm:ontology:petrol_gasoline_station,place,"{'label': 'TOTAL, Abanao Ext, 2600 Baguio City, Philippines', 'countryCode': 'PHL', 'countryName': 'Philippines', 'state': 'Cordillera Administrative Region', 'county': 'Benguet', 'city': 'Baguio City', 'district': 'Legarda-Burnham-Kisad', 'street': 'Abanao Ext', 'postalCode': '2600'}","{'lat': 16.41241, 'lng': 120.59146}","[{'lat': 16.41241, 'lng': 120.59149}]",206,"[{'id': '700-7600-0116', 'name': 'Gas Station', 'primary': True}]",[{'id': '35'}],"[{'supplier': {'id': 'core'}, 'id': '1038964067'}]","[{'phone': [{'value': '+637484421997'}], 'www': [{'value': 'https://www.total.com'}]}]",,,16.41241,120.59146
63,Shell Select,here:pds:place:608jx7ps-90b164f13b7b0b887db4ab02ff3f94f9,here:cm:ontology:petrol_gasoline_station,place,"{'label': 'Shell Select, Abanao St, 2600 Baguio City, Philippines', 'countryCode': 'PHL', 'countryName': 'Philippines', 'state': 'Cordillera Administrative Region', 'county': 'Benguet', 'city': 'Baguio City', 'district': 'Malcolm Square-Perfecto', 'street': 'Abanao St', 'postalCode': '2600'}","{'lat': 16.41384, 'lng': 120.59295}","[{'lat': 16.41382, 'lng': 120.59295}]",215,"[{'id': '600-6000-0061', 'name': 'Convenience Store', 'primary': True}, {'id': '700-7600-0116', 'name': 'Gas Station'}]",[{'id': '6558'}],"[{'supplier': {'id': 'core'}, 'id': '1143984988'}, {'supplier': {'id': 'core'}, 'id': '1143985122'}]","[{'phone': [{'value': '+637484423927'}], 'www': [{'value': 'http://www.shell.com.ph/'}], 'email': [{'value': 'shellcustomercare@shell.com', 'categories': [{'id': '700-7600-0116'}]}]}]",,,16.41384,120.59295
64,Shell Service Center,here:pds:place:608jx7ps-8698bc4117830e633581a4c4f4052e8b,here:cm:ontology:petrol_gasoline_station,place,"{'label': 'Shell Service Center, Abanao St, 2600 Baguio City, Philippines', 'countryCode': 'PHL', 'countryName': 'Philippines', 'state': 'Cordillera Administrative Region', 'county': 'Benguet', 'city': 'Baguio City', 'district': 'Malcolm Square-Perfecto', 'street': 'Abanao St', 'postalCode': '2600'}","{'lat': 16.41384, 'lng': 120.59295}","[{'lat': 16.41382, 'lng': 120.59295}]",215,"[{'id': '700-7850-0122', 'name': 'Car Repair', 'primary': True}, {'id': '700-7600-0116', 'name': 'Gas Station'}]",,"[{'supplier': {'id': 'core'}, 'id': '1143984991'}]","[{'phone': [{'value': '+637434448182', 'categories': [{'id': '700-7600-0116'}]}, {'value': '+637476190077'}]}]",,,16.41384,120.59295
65,Petron,here:pds:place:608xjxn4-1f0abab7da820062376164318181ca8d,here:cm:ontology:petrol_gasoline_station,place,"{'label': 'Petron, Perfecto St, 2600 Baguio City, Philippines', 'countryCode': 'PHL', 'countryName': 'Philippines', 'state': 'Cordillera Administrative Region', 'county': 'Benguet', 'city': 'Baguio City', 'district': 'Session Road Area', 'street': 'Perfecto St', 'postalCode': '2600'}","{'lat': 16.41317, 'lng': 120.59503}","[{'lat': 16.41313, 'lng': 120.59506}]",227,"[{'id': '700-7600-0116', 'name': 'Gas Station', 'primary': True}]",,,[{'phone': [{'value': '+639175062287'}]}],,,16.41317,120.59503
66,Petron,here:pds:place:608wdvv2-29e136c880294734a78e7b9025413b5d,here:cm:ontology:petrol_gasoline_station,place,"{'label': 'Petron, Legarda Rd, 2600 Baguio City, Philippines', 'countryCode': 'PHL', 'countryName': 'Philippines', 'state': 'Cordillera Administrative Region', 'county': 'Benguet', 'city': 'Baguio City', 'district': 'Legarda-Burnham-Kisad', 'street': 'Legarda Rd', 'postalCode': '2600'}","{'lat': 16.41115, 'lng': 120.59073}","[{'lat': 16.41116, 'lng': 120.59076}]",291,"[{'id': '700-7600-0116', 'name': 'Gas Station', 'primary': True}, {'id': '600-6000-0061', 'name': 'Convenience Store'}, {'id': '700-7850-0122', 'name': 'Car Repair'}]",[{'id': '7065'}],"[{'supplier': {'id': 'core'}, 'id': '1038986144'}, {'supplier': {'id': 'core'}, 'id': '1143825719'}, {'supplier': {'id': 'core'}, 'id': '1143825721'}]","[{'phone': [{'value': '+637434434435', 'categories': [{'id': '700-7600-0116'}]}], 'mobile': [{'value': '+639175060670'}], 'www': [{'value': 'https://www.caltex.com/ph/en.html', 'categories': [{'id': '700-7600-0116'}]}]}]",,,16.41115,120.59073
67,Caltex,here:pds:place:608wdvv2-37a1395dbcc045f293e8279248014bf0,here:cm:ontology:petrol_gasoline_station,place,"{'label': 'Caltex, City Camp Aly, 2600 Baguio City, Philippines', 'countryCode': 'PHL', 'countryName': 'Philippines', 'state': 'Cordillera Administrative Region', 'county': 'Benguet', 'city': 'Baguio City', 'district': 'Legarda-Burnham-Kisad', 'street': 'City Camp Aly', 'postalCode': '2600'}","{'lat': 16.41109, 'lng': 120.5903}","[{'lat': 16.41095, 'lng': 120.59031}]",337,"[{'id': '700-7600-0116', 'name': 'Gas Station', 'primary': True}, {'id': '700-7850-0122', 'name': 'Car Repair'}]",[{'id': '878'}],,[{'phone': [{'value': '+637484222265'}]}],,,16.41109,120.5903
68,Shell,here:pds:place:608wdvv2-e50baf25a9014de7965b1c5931ab8c9a,here:cm:ontology:petrol_gasoline_station,place,"{'label': 'Shell, E. Quirino Hwy, 2600 Baguio City, Philippines', 'countryCode': 'PHL', 'countryName': 'Philippines', 'state': 'Cordillera Administrative Region', 'county': 'Benguet', 'city': 'Baguio City', 'district': 'Azkco', 'street': 'E. Quirino Hwy', 'postalCode': '2600'}","{'lat': 16.41491, 'lng': 120.59051}","[{'lat': 16.41511, 'lng': 120.59062}]",447,"[{'id': '700-7600-0116', 'name': 'Gas Station', 'primary': True}, {'id': '600-6000-0061', 'name': 'Convenience Store'}]",[{'id': '10'}],"[{'supplier': {'id': 'core'}, 'id': '1038986245'}, {'supplier': {'id': 'core'}, 'id': '1038991100'}]","[{'phone': [{'value': '+633284423927', 'categories': [{'id': '700-7600-0116'}]}, {'value': '+637484247560'}, {'value': '+637484423927', 'categories': [{'id': '700-7600-0116'}]}], 'www': [{'value': 'http://www.shell.com.ph/', 'categories': [{'id': '700-7600-0116'}]}, {'value': 'https://find.shell.com/ph/fuel/10021485-sh-naguilian1-baguio-city'}, {'value': 'https://www.shell.com.ph', 'categories': [{'id': '700-7600-0116'}]}], 'email': [{'value': 'shellcustomercare@shell.com', 'categories': [{'id': '700-7600-0116'}]}]}]",,,16.41491,120.59051
69,Petron,here:pds:place:608wdvv2-ee073e5b02a54c4a964b15f9a84604c6,here:cm:ontology:petrol_gasoline_station,place,"{'label': 'Petron, Harrison Rd, 2600 Baguio City, Philippines', 'countryCode': 'PHL', 'countryName': 'Philippines', 'state': 'Cordillera Administrative Region', 'county': 'Benguet', 'city': 'Baguio City', 'district': 'Session Road Area', 'street': 'Harrison Rd', 'postalCode': '2600'}","{'lat': 16.40989, 'lng': 120.5972}","[{'lat': 16.40989, 'lng': 120.5972}]",472,"[{'id': '700-7600-0116', 'name': 'Gas Station', 'primary': True}]",,,"[{'phone': [{'value': '+637484422669'}], 'www': [{'value': 'http://www.petron.com'}]}]",,,16.40989,120.5972
70,Caltex,here:pds:place:608jx7ps-ec3abf17a1500faeb782f2a8248a69f2,here:cm:ontology:petrol_gasoline_station,place,"{'label': 'Caltex, Dumaguete North Rd, 6206 Bais City, Philippines', 'countryCode': 'PHL', 'countryName': 'Philippines', 'state': 'Central Visayas', 'county': 'Negros Oriental', 'city': 'Bais City', 'district': 'Barangay I Pob.', 'street': 'Dumaguete North Rd', 'postalCode': '6206'}","{'lat': 9.59055, 'lng': 123.12079}","[{'lat': 9.59059, 'lng': 123.12093}]",114,"[{'id': '700-7600-0116', 'name': 'Gas Station', 'primary': True}]",[{'id': '878'}],"[{'supplier': {'id': 'core'}, 'id': '1118547379'}, {'supplier': {'id': 'core'}, 'id': '1118547473'}, {'supplier': {'id': 'core'}, 'id': '1200728317'}]",,"[{'text': ['Mon-Thu, Sat, Sun: 06:00 - 20:00'], 'isOpen': True, 'structured': [{'start': 'T060000', 'duration': 'PT14H00M', 'recurrence': 'FREQ:DAILY;BYDAY:MO,TU,WE,TH,SA,SU'}]}]",,9.59055,123.12079
71,Caltex Gasoline Station Bais City,here:pds:place:608w9xw9-bb1dc82195af4de8b75e9060504422bd,here:cm:ontology:petrol_gasoline_station,place,"{'label': 'Caltex Gasoline Station Bais City, 6206 Bais City, Philippines', 'countryCode': 'PHL', 'countryName': 'Philippines', 'state': 'Central Visayas', 'county': 'Negros Oriental', 'city': 'Bais City', 'district': 'Barangay I Pob.', 'postalCode': '6206'}","{'lat': 9.59084, 'lng': 123.12043}","[{'lat': 9.59084, 'lng': 123.12043}]",122,"[{'id': '700-7600-0116', 'name': 'Gas Station', 'primary': True}]",,,,,,9.59084,123.12043
72,Petron,here:pds:place:608w9xw9-23bb99a906e94c4bb5a4aeca3f8f0ed2,here:cm:ontology:petrol_gasoline_station,place,"{'label': 'Petron, Dumaguete North Rd, 6206 Bais City, Philippines', 'countryCode': 'PHL', 'countryName': 'Philippines', 'state': 'Central Visayas', 'county': 'Negros Oriental', 'city': 'Bais City', 'district': 'Barangay I Pob.', 'street': 'Dumaguete North Rd', 'postalCode': '6206'}","{'lat': 9.58836, 'lng': 123.12157}","[{'lat': 9.58837, 'lng': 123.12159}]",337,"[{'id': '700-7600-0116', 'name': 'Gas Station', 'primary': True}]",[{'id': '7065'}],"[{'supplier': {'id': 'core'}, 'id': '1200728318'}]",,,,9.58836,123.12157
73,J&P Asia Gasoline Station,here:pds:place:608jx7ps-e5212bed9ffd0d9c16bfc65a8ad165ec,here:cm:ontology:petrol_gasoline_station,place,"{'label': 'J&P Asia Gasoline Station, Dumaguete North Rd, 6206 Bais City, Philippines', 'countryCode': 'PHL', 'countryName': 'Philippines', 'state': 'Central Visayas', 'county': 'Negros Oriental', 'city': 'Bais City', 'district': 'Talungon', 'street': 'Dumaguete North Rd', 'postalCode': '6206'}","{'lat': 9.59593, 'lng': 123.11827}","[{'lat': 9.59592, 'lng': 123.11825}]",610,"[{'id': '700-7600-0116', 'name': 'Gas Station', 'primary': True}]",,"[{'supplier': {'id': 'core'}, 'id': '1118542573'}]",,,,9.59593,123.11827
74,Star Oil Bais City Branch,here:pds:place:608w9xw9-2a7d21e6a73f4cee81cd11063e830a86,here:cm:ontology:petrol_gasoline_station,place,"{'label': 'Star Oil Bais City Branch, 6206 Bais City, Philippines', 'countryCode': 'PHL', 'countryName': 'Philippines', 'state': 'Central Visayas', 'county': 'Negros Oriental', 'city': 'Bais City', 'district': 'Talungon', 'postalCode': '6206'}","{'lat': 9.5962, 'lng': 123.11851}","[{'lat': 9.5962, 'lng': 123.11851}]",621,"[{'id': '700-7600-0116', 'name': 'Gas Station', 'primary': True}]",,,,,,9.5962,123.11851
75,HGV Petrol Gasoline Station,here:pds:place:608w9xw9-4c6a508ef31e41da8656e668c829849d,here:cm:ontology:petrol_gasoline_station,place,"{'label': 'HGV Petrol Gasoline Station, Dumaguete North Rd, 6206 Bais City, Philippines', 'countryCode': 'PHL', 'countryName': 'Philippines', 'state': 'Central Visayas', 'county': 'Negros Oriental', 'city': 'Bais City', 'district': 'Talungon', 'street': 'Dumaguete North Rd', 'postalCode': '6206'}","{'lat': 9.59622, 'lng': 123.11814}","[{'lat': 9.59615, 'lng': 123.11804}]",645,"[{'id': '700-7600-0116', 'name': 'Gas Station', 'primary': True}]",,"[{'supplier': {'id': 'core'}, 'id': '1192451002'}]",,,,9.59622,123.11814
76,J&P Asia,here:pds:place:608w9xwc-21ed9518c937419591f308af6e02f51a,here:cm:ontology:petrol_gasoline_station,place,"{'label': 'J&P Asia, Kabankalan-Bais Rd, 6208 Manjuyod, Philippines', 'countryCode': 'PHL', 'countryName': 'Philippines', 'state': 'Central Visayas', 'county': 'Negros Oriental', 'city': 'Manjuyod', 'district': 'Alangilanan', 'street': 'Kabankalan-Bais Rd', 'postalCode': '6208'}","{'lat': 9.63406, 'lng': 123.09795}","[{'lat': 9.63406, 'lng': 123.09795}]",5396,"[{'id': '700-7600-0116', 'name': 'Gas Station', 'primary': True}]",,"[{'supplier': {'id': 'core'}, 'id': '1200692189'}]",,,,9.63406,123.09795
77,Fillmore,here:pds:place:608jx7ps-b4599f92049b04b4b4c73176ecb15900,here:cm:ontology:petrol_gasoline_station,place,"{'label': 'Fillmore, Dumaguete North Rd, 6206 Bais City, Philippines', 'countryCode': 'PHL', 'countryName': 'Philippines', 'state': 'Central Visayas', 'county': 'Negros Oriental', 'city': 'Bais City', 'district': 'Calasga-an', 'street': 'Dumaguete North Rd', 'postalCode': '6206'}","{'lat': 9.54088, 'lng': 123.09995}","[{'lat': 9.54088, 'lng': 123.09994}]",6089,"[{'id': '700-7600-0116', 'name': 'Gas Station', 'primary': True}]",,"[{'supplier': {'id': 'core'}, 'id': '1118546374'}]",,,,9.54088,123.09995
78,Petron,here:pds:place:608w9xw1-dd2eee9fc9c249b784eb49d33d4af79a,here:cm:ontology:petrol_gasoline_station,place,"{'label': 'Petron, Dumaguete North Rd, 6204 Tanjay, Philippines', 'countryCode': 'PHL', 'countryName': 'Philippines', 'state': 'Central Visayas', 'county': 'Negros Oriental', 'city': 'Tanjay', 'district': 'Santa Cruz Nuevo', 'street': 'Dumaguete North Rd', 'postalCode': '6204'}","{'lat': 9.53477, 'lng': 123.10501}","[{'lat': 9.53479, 'lng': 123.10503}]",6547,"[{'id': '700-7600-0116', 'name': 'Gas Station', 'primary': True}]",[{'id': '7065'}],"[{'supplier': {'id': 'core'}, 'id': '1200735053'}]",,,,9.53477,123.10501
79,Go-EZ,here:pds:place:608w9xw4-df3966ec28124878b8f3d7d359fee16d,here:cm:ontology:petrol_gasoline_station,place,"{'label': 'Go-EZ, Dumaguete North Rd, 6204 Tanjay, Philippines', 'countryCode': 'PHL', 'countryName': 'Philippines', 'state': 'Central Visayas', 'county': 'Negros Oriental', 'city': 'Tanjay', 'district': 'Luca', 'street': 'Dumaguete North Rd', 'postalCode': '6204'}","{'lat': 9.51662, 'lng': 123.13819}","[{'lat': 9.51661, 'lng': 123.13818}]",8516,"[{'id': '700-7600-0116', 'name': 'Gas Station', 'primary': True}]",,"[{'supplier': {'id': 'core'}, 'id': '1200728113'}]",,,,9.51662,123.13819
80,Caltex Balanga,here:pds:place:608wdtew-6b81d339876845ce8e6446d52191299e,here:cm:ontology:petrol_gasoline_station,place,"{'label': 'Caltex Balanga, Paterno St, 2100 Balanga, Philippines', 'countryCode': 'PHL', 'countryName': 'Philippines', 'state': 'Central Luzon', 'county': 'Bataan', 'city': 'Balanga', 'district': 'Talisay', 'street': 'Paterno St', 'postalCode': '2100'}","{'lat': 14.6784, 'lng': 120.54126}","[{'lat': 14.67849, 'lng': 120.54137}]",125,"[{'id': '700-7600-0116', 'name': 'Gas Station', 'primary': True}]",,,,,,14.6784,120.54126
81,Shell,here:pds:place:608jx7ps-d8173d90a0e90cb9c3b313f21ab10a5c,here:cm:ontology:petrol_gasoline_station,place,"{'label': 'Shell, Don Manuel Banzon St, 2100 Balanga, Philippines', 'countryCode': 'PHL', 'countryName': 'Philippines', 'state': 'Central Luzon', 'county': 'Bataan', 'city': 'Balanga', 'district': 'Malabia', 'street': 'Don Manuel Banzon St', 'postalCode': '2100'}","{'lat': 14.68005, 'lng': 120.54207}","[{'lat': 14.68005, 'lng': 120.54208}]",150,"[{'id': '700-7600-0116', 'name': 'Gas Station', 'primary': True}, {'id': '600-6000-0061', 'name': 'Convenience Store'}, {'id': '700-7850-0121', 'name': 'Car Wash - Detailing'}]",[{'id': '10'}],"[{'supplier': {'id': 'core'}, 'id': '1108564312'}, {'supplier': {'id': 'core'}, 'id': '1108577824'}]","[{'phone': [{'value': '+63288788888', 'categories': [{'id': '700-7600-0116'}]}, {'value': '+634782374980'}, {'value': '09295661111', 'categories': [{'id': '700-7600-0116'}, {'id': '700-7850-0121'}]}], 'www': [{'value': 'https://find.shell.com/ph/fuel/10021488-sh-balanga-bataan', 'categories': [{'id': '700-7600-0116'}]}, {'value': 'https://find.shell.com/ph/fuel/10021488-sh-balanga-bataan-coss', 'categories': [{'id': '700-7600-0116'}, {'id': '700-7850-0121'}]}]}]","[{'categories': [{'id': '700-7600-0116'}], 'text': ['Mon-Sun: 00:00 - 24:00'], 'isOpen': True, 'structured': [{'start': 'T000000', 'duration': 'PT24H00M', 'recurrence': 'FREQ:DAILY;BYDAY:MO,TU,WE,TH,FR,SA,SU'}]}]",,14.68005,120.54207
82,Petron National Road,here:pds:place:608wdtex-770888073b0a42ffbfcc2d7f832f7039,here:cm:ontology:petrol_gasoline_station,place,"{'label': 'Petron National Road, Camacho, 2100 Balanga, Philippines', 'countryCode': 'PHL', 'countryName': 'Philippines', 'state': 'Central Luzon', 'county': 'Bataan', 'city': 'Balanga', 'district': 'Malabia', 'street': 'Camacho', 'postalCode': '2100'}","{'lat': 14.67988, 'lng': 120.54216}","[{'lat': 14.67988, 'lng': 120.54216}]",151,"[{'id': '700-7600-0116', 'name': 'Gas Station', 'primary': True}]",,,,,,14.67988,120.54216
83,Shell Service Bay,here:pds:place:608jx7ps-7ff3c1a9a6270d9fc1d9dbfa4d4894bd,here:cm:ontology:petrol_gasoline_station,place,"{'label': 'Shell Service Bay, Don Manuel Banzon St, 2100 Balanga, Philippines', 'countryCode': 'PHL', 'countryName': 'Philippines', 'state': 'Central Luzon', 'county': 'Bataan', 'city': 'Balanga', 'district': 'Malabia', 'street': 'Don Manuel Banzon St', 'postalCode': '2100'}","{'lat': 14.68036, 'lng': 120.54194}","[{'lat': 14.68035, 'lng': 120.54193}]",157,"[{'id': '700-7600-0116', 'name': 'Gas Station', 'primary': True}, {'id': '700-7850-0122', 'name': 'Car Repair'}]",[{'id': '10'}],"[{'supplier': {'id': 'core'}, 'id': '1108564853'}]",,,,14.68036,120.54194
84,Shell,here:pds:place:608jx7ps-0865a7372b7909aaad4594a22da588bb,here:cm:ontology:petrol_gasoline_station,place,"{'label': 'Shell, Don Manuel Banzon St, 2100 Balanga, Philippines', 'countryCode': 'PHL', 'countryName': 'Philippines', 'state': 'Central Luzon', 'county': 'Bataan', 'city': 'Balanga', 'district': 'Malabia', 'street': 'Don Manuel Banzon St', 'postalCode': '2100'}","{'lat': 14.68017, 'lng': 120.54215}","[{'lat': 14.68011, 'lng': 120.54205}]",164,"[{'id': '700-7600-0116', 'name': 'Gas Station', 'primary': True}, {'id': '600-6000-0061', 'name': 'Convenience Store'}]",[{'id': '10'}],,"[{'www': [{'value': 'https://find.shell.com/ph/fuel/10021488-sh-balanga-bataan', 'categories': [{'id': '700-7600-0116'}]}]}]",,,14.68017,120.54215
85,Caltex,here:pds:place:608jx7ps-c06eaed8a4260d60899f69c1cffbe6c0,here:cm:ontology:petrol_gasoline_station,place,"{'label': 'Caltex, J. P. Rizal St, 2100 Balanga, Philippines', 'countryCode': 'PHL', 'countryName': 'Philippines', 'state': 'Central Luzon', 'county': 'Bataan', 'city': 'Balanga', 'district': 'Malabia', 'street': 'J. P. Rizal St', 'postalCode': '2100'}","{'lat': 14.67991, 'lng': 120.54231}","[{'lat': 14.68001, 'lng': 120.54225}]",168,"[{'id': '700-7600-0116', 'name': 'Gas Station', 'primary': True}]",[{'id': '878'}],,,,,14.67991,120.54231
86,Petron,here:pds:place:608wdtex-163cf732f93b454eaec6a740efb6fd72,here:cm:ontology:petrol_gasoline_station,place,"{'label': 'Petron, 2100 Balanga, Philippines', 'countryCode': 'PHL', 'countryName': 'Philippines', 'state': 'Central Luzon', 'county': 'Bataan', 'city': 'Balanga', 'district': 'Talisay', 'postalCode': '2100'}","{'lat': 14.67981, 'lng': 120.54235}","[{'lat': 14.67984, 'lng': 120.54234}]",169,"[{'id': '700-7600-0116', 'name': 'Gas Station', 'primary': True}]",[{'id': '7065'}],"[{'supplier': {'id': 'core'}, 'id': '1201927516'}]",,,,14.67981,120.54235
87,Petron Camacho-Poblacion Balanga,here:pds:place:608wdtew-20016afbf869411fbbb7a85b246ba2cf,here:cm:ontology:petrol_gasoline_station,place,"{'label': 'Petron Camacho-Poblacion Balanga, Don Manuel Banzon St, 2100 Balanga, Philippines', 'countryCode': 'PHL', 'countryName': 'Philippines', 'state': 'Central Luzon', 'county': 'Bataan', 'city': 'Balanga', 'district': 'Malabia', 'street': 'Don Manuel Banzon St', 'postalCode': '2100'}","{'lat': 14.68167, 'lng': 120.54126}","[{'lat': 14.68167, 'lng': 120.54127}]",252,"[{'id': '700-7600-0116', 'name': 'Gas Station', 'primary': True}]",,,,,,14.68167,120.54126
88,Shell Talisay-Balanga,here:pds:place:608wdtew-db576a28cfed4f7baf139538707823b4,here:cm:ontology:petrol_gasoline_station,place,"{'label': 'Shell Talisay-Balanga, Don Manuel Banzon St, 2100 Balanga, Philippines', 'countryCode': 'PHL', 'countryName': 'Philippines', 'state': 'Central Luzon', 'county': 'Bataan', 'city': 'Balanga', 'district': 'Malabia', 'street': 'Don Manuel Banzon St', 'postalCode': '2100'}","{'lat': 14.68423, 'lng': 120.54014}","[{'lat': 14.68416, 'lng': 120.54002}]",538,"[{'id': '700-7600-0116', 'name': 'Gas Station', 'primary': True}]",,,,,,14.68423,120.54014
89,Caltex,here:pds:place:608jx7ps-5ed813dc4b64073d48438d4f60d92b02,here:cm:ontology:petrol_gasoline_station,place,"{'label': 'Caltex, Don Manuel Banzon St, 2100 Balanga, Philippines', 'countryCode': 'PHL', 'countryName': 'Philippines', 'state': 'Central Luzon', 'county': 'Bataan', 'city': 'Balanga', 'district': 'Malabia', 'street': 'Don Manuel Banzon St', 'postalCode': '2100'}","{'lat': 14.68554, 'lng': 120.53932}","[{'lat': 14.68554, 'lng': 120.53932}]",697,"[{'id': '700-7600-0116', 'name': 'Gas Station', 'primary': True}]",[{'id': '878'}],"[{'supplier': {'id': 'core'}, 'id': '1108564170'}]",[{'mobile': [{'value': '+639166748619'}]}],,,14.68554,120.53932
90,Shell,here:pds:place:608wejwx-bd7055e392ec45d8bb5bdd61f1ac409f,here:cm:ontology:petrol_gasoline_station,place,"{'label': 'Shell, San Marcelino St, 2906 Batac, Philippines', 'countryCode': 'PHL', 'countryName': 'Philippines', 'state': 'Ilocos Region', 'county': 'Ilocos Norte', 'city': 'Batac', 'district': 'Barani Pob.', 'street': 'San Marcelino St', 'postalCode': '2906'}","{'lat': 18.05481, 'lng': 120.56484}","[{'lat': 18.05481, 'lng': 120.56484}]",230,"[{'id': '700-7600-0116', 'name': 'Gas Station', 'primary': True}]",,,"[{'phone': [{'value': '+637777923007'}], 'www': [{'value': 'https://find.shell.com/ph/fuel/12486128-sh-caunayan-ilocos-norte'}]}]","[{'text': ['Mon-Sun: 00:00 - 24:00'], 'isOpen': True, 'structured': [{'start': 'T000000', 'duration': 'PT24H00M', 'recurrence': 'FREQ:DAILY;BYDAY:MO,TU,WE,TH,FR,SA,SU'}]}]",,18.05481,120.56484
91,Flying V,here:pds:place:608jx7ps-abb61e8aae80079c0bb8786528a4252e,here:cm:ontology:petrol_gasoline_station,place,"{'label': 'Flying V, F. E. Marcos Ave, 2906 Batac, Philippines', 'countryCode': 'PHL', 'countryName': 'Philippines', 'state': 'Ilocos Region', 'county': 'Ilocos Norte', 'city': 'Batac', 'district': 'Aglipay Pob.', 'street': 'F. E. Marcos Ave', 'postalCode': '2906'}","{'lat': 18.05483, 'lng': 120.56236}","[{'lat': 18.05485, 'lng': 120.56236}]",261,"[{'id': '700-7600-0116', 'name': 'Gas Station', 'primary': True}]",[{'id': '8672'}],"[{'supplier': {'id': 'core'}, 'id': '1138939272'}]",,,,18.05483,120.56236
92,Shell,here:pds:place:608jx7ps-4757cd7b68010fe769b692013313ed16,here:cm:ontology:petrol_gasoline_station,place,"{'label': 'Shell, Versoza St, 2906 Batac, Philippines', 'countryCode': 'PHL', 'countryName': 'Philippines', 'state': 'Ilocos Region', 'county': 'Ilocos Norte', 'city': 'Batac', 'district': 'Barani Pob.', 'street': 'Versoza St', 'postalCode': '2906'}","{'lat': 18.05461, 'lng': 120.56513}","[{'lat': 18.05461, 'lng': 120.56513}]",264,"[{'id': '700-7600-0116', 'name': 'Gas Station', 'primary': True}]",[{'id': '10'}],"[{'supplier': {'id': 'core'}, 'id': '1138939303'}]","[{'phone': [{'value': '+63288166501'}, {'value': '+637777923007'}, {'value': '+637777924021'}, {'value': '+639159793246'}, {'value': '09159793246'}], 'www': [{'value': 'http://www.shell.com.ph/'}, {'value': 'https://find.shell.com/ph/fuel/10021713-sh-valdez-batac-ilocos-n'}, {'value': 'https://find.shell.com/ph/fuel/10021713-sh-valdez-batac-ilocos-n-doss'}], 'email': [{'value': 'shellcustomercare@shell.com'}]}]","[{'text': ['Mon-Sun: 00:00 - 24:00'], 'isOpen': True, 'structured': [{'start': 'T000000', 'duration': 'PT24H00M', 'recurrence': 'FREQ:DAILY;BYDAY:MO,TU,WE,TH,FR,SA,SU'}]}]",,18.05461,120.56513
93,Shell,here:pds:place:608wejwx-c34aaaa524f6477eb9081263a9885807,here:cm:ontology:petrol_gasoline_station,place,"{'label': 'Shell, Manila North Rd, 2906 Batac, Philippines', 'countryCode': 'PHL', 'countryName': 'Philippines', 'state': 'Ilocos Region', 'county': 'Ilocos Norte', 'city': 'Batac', 'district': 'Acosta Pob.', 'street': 'Manila North Rd', 'postalCode': '2906'}","{'lat': 18.05797, 'lng': 120.5581}","[{'lat': 18.05796, 'lng': 120.55812}]",629,"[{'id': '700-7600-0116', 'name': 'Gas Station', 'primary': True}]",[{'id': '10'}],"[{'supplier': {'id': 'core'}, 'id': '1204074953'}]",,,,18.05797,120.5581
94,Northcoast Oil,here:pds:place:608wejwx-a6bf7c9ae89d45f4a04608514db50cf7,here:cm:ontology:petrol_gasoline_station,place,"{'label': 'Northcoast Oil, Manila North Rd, 2906 Batac, Philippines', 'countryCode': 'PHL', 'countryName': 'Philippines', 'state': 'Ilocos Region', 'county': 'Ilocos Norte', 'city': 'Batac', 'district': 'Acosta Pob.', 'street': 'Manila North Rd', 'postalCode': '2906'}","{'lat': 18.05601, 'lng': 120.55751}","[{'lat': 18.05601, 'lng': 120.55749}]",678,"[{'id': '700-7600-0116', 'name': 'Gas Station', 'primary': True}]",,"[{'supplier': {'id': 'core'}, 'id': '1204074952'}]",[{'phone': [{'value': '0927 255 5502'}]}],,,18.05601,120.55751
95,Prime Energy,here:pds:place:608jx7ps-52df6119a90f0dc05edde3176e993f5a,here:cm:ontology:petrol_gasoline_station,place,"{'label': 'Prime Energy, Washington St, 2906 Batac, Philippines', 'countryCode': 'PHL', 'countryName': 'Philippines', 'state': 'Ilocos Region', 'county': 'Ilocos Norte', 'city': 'Batac', 'district': 'Callaguip Pob.', 'street': 'Washington St', 'postalCode': '2906'}","{'lat': 18.06293, 'lng': 120.56531}","[{'lat': 18.06293, 'lng': 120.56531}]",712,"[{'id': '700-7600-0116', 'name': 'Gas Station', 'primary': True}]",,"[{'supplier': {'id': 'core'}, 'id': '1138949571'}]",,,,18.06293,120.56531
96,Ran Gas Station,here:pds:place:608wejwz-212245d1805640b1b79a35b2a04f984f,here:cm:ontology:petrol_gasoline_station,place,"{'label': 'Ran Gas Station, National Hwy, 2906 Batac, Philippines', 'countryCode': 'PHL', 'countryName': 'Philippines', 'state': 'Ilocos Region', 'county': 'Ilocos Norte', 'city': 'Batac', 'district': 'San Julian Pob.', 'street': 'National Hwy', 'postalCode': '2906'}","{'lat': 18.06167, 'lng': 120.55923}","[{'lat': 18.06166, 'lng': 120.55925}]",743,"[{'id': '700-7600-0116', 'name': 'Gas Station', 'primary': True}]",,"[{'supplier': {'id': 'core'}, 'id': '1204179117'}]",,,,18.06167,120.55923
97,Shell,here:pds:place:608jx7ps-e28b32826c0f0739bb3cdc67e55fa931,here:cm:ontology:petrol_gasoline_station,place,"{'label': 'Shell, Manila North Rd, 2906 Batac, Philippines', 'countryCode': 'PHL', 'countryName': 'Philippines', 'state': 'Ilocos Region', 'county': 'Ilocos Norte', 'city': 'Batac', 'district': 'Suabit Pob.', 'street': 'Manila North Rd', 'postalCode': '2906'}","{'lat': 18.0677, 'lng': 120.56112}","[{'lat': 18.0677, 'lng': 120.5611}]",1261,"[{'id': '700-7600-0116', 'name': 'Gas Station', 'primary': True}, {'id': '600-6000-0061', 'name': 'Convenience Store'}]",[{'id': '10'}],"[{'supplier': {'id': 'core'}, 'id': '1097199217'}]",[{'phone': [{'value': '+637777924975'}]}],,,18.0677,120.56112
98,Petron,here:pds:place:608jx7ps-918fba97b9d7000ff8b54fd22f31203f,here:cm:ontology:petrol_gasoline_station,place,"{'label': 'Petron, Manila North Rd, 2906 Batac, Philippines', 'countryCode': 'PHL', 'countryName': 'Philippines', 'state': 'Ilocos Region', 'county': 'Ilocos Norte', 'city': 'Batac', 'district': 'Suabit Pob.', 'street': 'Manila North Rd', 'postalCode': '2906'}","{'lat': 18.06854, 'lng': 120.56133}","[{'lat': 18.06853, 'lng': 120.56135}]",1347,"[{'id': '700-7600-0116', 'name': 'Gas Station', 'primary': True}, {'id': '700-7850-0122', 'name': 'Car Repair'}]",[{'id': '7065'}],"[{'supplier': {'id': 'core'}, 'id': '1097199214'}, {'supplier': {'id': 'core'}, 'id': '1097199216'}]",,,,18.06854,120.56133
99,Rana-Ann,here:pds:place:608jx7ps-5dcc3801f7120935b70cc9b15a153971,here:cm:ontology:petrol_gasoline_station,place,"{'label': 'Rana-Ann, Manila North Rd, 2906 Batac, Philippines', 'countryCode': 'PHL', 'countryName': 'Philippines', 'state': 'Ilocos Region', 'county': 'Ilocos Norte', 'city': 'Batac', 'district': 'Quiling Norte', 'street': 'Manila North Rd', 'postalCode': '2906'}","{'lat': 18.07885, 'lng': 120.56295}","[{'lat': 18.07885, 'lng': 120.56297}]",2468,"[{'id': '700-7600-0116', 'name': 'Gas Station', 'primary': True}]",,"[{'supplier': {'id': 'core'}, 'id': '1097199224'}, {'supplier': {'id': 'core'}, 'id': '1138938449'}]",,,,18.07885,120.56295
100,Shell,here:pds:place:608wdqn6-6d119c7ad08d457188821bd914802f32,here:cm:ontology:petrol_gasoline_station,place,"{'label': 'Shell, Burgos St, 4200 Batangas City, Philippines', 'countryCode': 'PHL', 'countryName': 'Philippines', 'state': 'Calabarzon', 'county': 'Batangas', 'city': 'Batangas City', 'district': 'Barangay 2 Pob.', 'street': 'Burgos St', 'postalCode': '4200'}","{'lat': 13.75724, 'lng': 121.05817}","[{'lat': 13.75724, 'lng': 121.05817}]",133,"[{'id': '700-7600-0116', 'name': 'Gas Station', 'primary': True}]",[{'id': '10'}],,"[{'phone': [{'value': '+634334064000'}, {'value': '+634384020415'}], 'www': [{'value': 'http://www.shell.com.ph/'}, {'value': 'https://find.shell.com/ph/fuel/10021581-sh-calicanto-batngas-city-coss'}], 'email': [{'value': 'shellcustomercare@shell.com'}]}]",,,13.75724,121.05817
101,Petron,here:pds:place:608wdqn4-49efa0525dfc4da6922368d5b059358f,here:cm:ontology:petrol_gasoline_station,place,"{'label': 'Petron, DJPMM, 4200 Batangas City, Philippines', 'countryCode': 'PHL', 'countryName': 'Philippines', 'state': 'Calabarzon', 'county': 'Batangas', 'city': 'Batangas City', 'district': 'Cuta', 'street': 'DJPMM', 'postalCode': '4200'}","{'lat': 13.75171, 'lng': 121.05617}","[{'lat': 13.7517, 'lng': 121.05616}]",519,"[{'id': '700-7600-0116', 'name': 'Gas Station', 'primary': True}]",[{'id': '7065'}],"[{'supplier': {'id': 'core'}, 'id': '1097169428'}]",,,,13.75171,121.05617
102,Shell,here:pds:place:608wdqn6-869939fb19d04363b2f906fe7aa2b31a,here:cm:ontology:petrol_gasoline_station,place,"{'label': 'Shell, Alegre St, 4200 Batangas City, Philippines', 'countryCode': 'PHL', 'countryName': 'Philippines', 'state': 'Calabarzon', 'county': 'Batangas', 'city': 'Batangas City', 'district': 'Barangay 9 Pob.', 'street': 'Alegre St', 'postalCode': '4200'}","{'lat': 13.7614, 'lng': 121.05817}","[{'lat': 13.76127, 'lng': 121.05818}]",590,"[{'id': '700-7600-0116', 'name': 'Gas Station', 'primary': True}]",[{'id': '10'}],,"[{'phone': [{'value': '+634364870528'}], 'www': [{'value': 'http://www.shell.com.ph/'}], 'email': [{'value': 'shellcustomercare@shell.com'}]}]",,,13.7614,121.05817
103,TOTAL,here:pds:place:608wdqn6-8faf598918c9400693edd2046aaff218,here:cm:ontology:petrol_gasoline_station,place,"{'label': 'TOTAL, 4200 Batangas City, Philippines', 'countryCode': 'PHL', 'countryName': 'Philippines', 'state': 'Calabarzon', 'county': 'Batangas', 'city': 'Batangas City', 'district': 'Santa Clara', 'postalCode': '4200'}","{'lat': 13.7561, 'lng': 121.052}","[{'lat': 13.75611, 'lng': 121.05189}]",624,"[{'id': '700-7600-0116', 'name': 'Gas Station', 'primary': True}]",[{'id': '35'}],"[{'supplier': {'id': 'core'}, 'id': '1211238048'}]",,,,13.7561,121.052
104,Filoil,here:pds:place:608wdqn6-4cb767e0d3524af88d2ae952e9f2bd81,here:cm:ontology:petrol_gasoline_station,place,"{'label': 'Filoil, 4200 Batangas City, Philippines', 'countryCode': 'PHL', 'countryName': 'Philippines', 'state': 'Calabarzon', 'county': 'Batangas', 'city': 'Batangas City', 'district': 'Santa Clara', 'postalCode': '4200'}","{'lat': 13.75598, 'lng': 121.05185}","[{'lat': 13.75598, 'lng': 121.05188}]",641,"[{'id': '700-7600-0116', 'name': 'Gas Station', 'primary': True}]",[{'id': '30984'}],"[{'supplier': {'id': 'core'}, 'id': '1192103897'}]",,,,13.75598,121.05185
105,Petron JP Laurel Calicanto,here:pds:place:608wdqn6-d47fda1efcce46efa1cb47c09111da6c,here:cm:ontology:petrol_gasoline_station,place,"{'label': 'Petron JP Laurel Calicanto, National Hwy, 4200 Batangas City, Philippines', 'countryCode': 'PHL', 'countryName': 'Philippines', 'state': 'Calabarzon', 'county': 'Batangas', 'city': 'Batangas City', 'district': 'Barangay 12 Pob.', 'street': 'National Hwy', 'postalCode': '4200'}","{'lat': 13.76237, 'lng': 121.05734}","[{'lat': 13.76237, 'lng': 121.05734}]",698,"[{'id': '700-7600-0116', 'name': 'Gas Station', 'primary': True}]",[{'id': '7065'}],"[{'supplier': {'id': 'core'}, 'id': '1048451063'}]","[{'phone': [{'value': '+634387234277'}], 'email': [{'value': 'contactus@petron.com'}]}]",,,13.76237,121.05734
106,Shell,here:pds:place:608wdqn4-a0a439ff0b394d409ef164f5da8fdcb4,here:cm:ontology:petrol_gasoline_station,place,"{'label': 'Shell, DJPMM, 4200 Batangas City, Philippines', 'countryCode': 'PHL', 'countryName': 'Philippines', 'state': 'Calabarzon', 'county': 'Batangas', 'city': 'Batangas City', 'district': 'Cuta', 'street': 'DJPMM', 'postalCode': '4200'}","{'lat': 13.75083, 'lng': 121.05299}","[{'lat': 13.75082, 'lng': 121.05297}]",783,"[{'id': '700-7600-0116', 'name': 'Gas Station', 'primary': True}]",[{'id': '10'}],"[{'supplier': {'id': 'core'}, 'id': '1048143295'}]","[{'phone': [{'value': '+634387239244'}], 'www': [{'value': 'http://www.shell.com.ph/'}], 'email': [{'value': 'shellcustomercare@shell.com'}]}]",,,13.75083,121.05299
107,Sialay Shell,here:pds:place:608wdqn6-3e96c7a67a5f4ec0bfe400b296bd4484,here:cm:ontology:petrol_gasoline_station,place,"{'label': 'Sialay Shell, Batangas-San Pascual Hwy, 4200 Batangas City, Philippines', 'countryCode': 'PHL', 'countryName': 'Philippines', 'state': 'Calabarzon', 'county': 'Batangas', 'city': 'Batangas City', 'district': 'Kumintang Ibaba', 'street': 'Batangas-San Pascual Hwy', 'postalCode': '4200'}","{'lat': 13.76347, 'lng': 121.05678}","[{'lat': 13.76347, 'lng': 121.05679}]",825,"[{'id': '700-7600-0116', 'name': 'Gas Station', 'primary': True}]",,,"[{'phone': [{'value': '+635534082931'}], 'www': [{'value': 'http://city.com'}]}]",,,13.76347,121.05678
108,Shell,here:pds:place:608wdqn6-d9274037cc7e48b3bc3135d8f7dd8bd0,here:cm:ontology:petrol_gasoline_station,place,"{'label': 'Shell, Batangas-San Pascual Hwy, 4200 Batangas City, Philippines', 'countryCode': 'PHL', 'countryName': 'Philippines', 'state': 'Calabarzon', 'county': 'Batangas', 'city': 'Batangas City', 'district': 'Kumintang Ibaba', 'street': 'Batangas-San Pascual Hwy', 'postalCode': '4200'}","{'lat': 13.76362, 'lng': 121.0567}","[{'lat': 13.76362, 'lng': 121.0567}]",843,"[{'id': '700-7600-0116', 'name': 'Gas Station', 'primary': True}, {'id': '600-6000-0061', 'name': 'Convenience Store'}, {'id': '700-7850-0000', 'name': 'Car Repair - Service'}]",[{'id': '10'}],"[{'supplier': {'id': 'core'}, 'id': '1048458941'}, {'supplier': {'id': 'core'}, 'id': '1048458942'}, {'supplier': {'id': 'core'}, 'id': '1048458943'}]","[{'phone': [{'value': '+634364870528', 'categories': [{'id': '700-7600-0116'}]}, {'value': '+634387222551'}, {'value': '+634387271716', 'categories': [{'id': '600-6000-0061'}, {'id': '700-7850-0000'}]}], 'www': [{'value': 'http://www.shell.com.ph/', 'categories': [{'id': '700-7600-0116'}]}, {'value': 'https://find.shell.com/ph/fuel/10021581-sh-calicanto-batngas-city', 'categories': [{'id': '700-7600-0116'}]}, {'value': 'https://find.shell.com/ph/fuel/10021901-sh-mabini-batangas', 'categories': [{'id': '700-7600-0116'}]}], 'email': [{'value': 'shellcustomercare@shell.com', 'categories': [{'id': '700-7600-0116'}]}]}]","[{'categories': [{'id': '700-7600-0116'}], 'text': ['Mon-Sun: 00:00 - 24:00'], 'isOpen': True, 'structured': [{'start': 'T000000', 'duration': 'PT24H00M', 'recurrence': 'FREQ:DAILY;BYDAY:MO,TU,WE,TH,FR,SA,SU'}]}]",,13.76362,121.0567
109,Shell,here:pds:place:608wdqn5-f33a396136404ec68924a38ab01a1fe3,here:cm:ontology:petrol_gasoline_station,place,"{'label': 'Shell, M. H. del Pilar St, 4200 Batangas City, Philippines', 'countryCode': 'PHL', 'countryName': 'Philippines', 'state': 'Calabarzon', 'county': 'Batangas', 'city': 'Batangas City', 'district': 'Pallocan Silangan', 'street': 'M. H. del Pilar St', 'postalCode': '4200'}","{'lat': 13.75396, 'lng': 121.07015}","[{'lat': 13.75395, 'lng': 121.07015}]",1357,"[{'id': '700-7600-0116', 'name': 'Gas Station', 'primary': True}]",[{'id': '10'}],"[{'supplier': {'id': 'core'}, 'id': '1048349339'}]","[{'phone': [{'value': '+634387237065'}], 'www': [{'value': 'http://www.shell.com.ph/'}], 'email': [{'value': 'shellcustomercare@shell.com'}]}]",,,13.75396,121.07015
110,Shell,here:pds:place:608w9xm6-66a4e8ce570a42ce8066706801ab209f,here:cm:ontology:petrol_gasoline_station,place,"{'label': 'Shell, National Hwy, 6221 Bayawan, Philippines', 'countryCode': 'PHL', 'countryName': 'Philippines', 'state': 'Central Visayas', 'county': 'Negros Oriental', 'city': 'Bayawan', 'district': 'Villareal', 'street': 'National Hwy', 'postalCode': '6221'}","{'lat': 9.36484, 'lng': 122.80593}","[{'lat': 9.36482, 'lng': 122.80592}]",207,"[{'id': '700-7600-0116', 'name': 'Gas Station', 'primary': True}]",[{'id': '10'}],"[{'supplier': {'id': 'core'}, 'id': '1118542658'}]","[{'phone': [{'value': '+63288788888'}, {'value': '+633585310551'}], 'www': [{'value': 'http://www.shell.com.ph/'}, {'value': 'https://find.shell.com/ph/fuel/10022158-sh-bayawan-negros-orientl'}, {'value': 'https://find.shell.com/ph/fuel/10022158-sh-bayawan-negros-orientl-doss'}], 'email': [{'value': 'shellcustomercare@shell.com'}]}]","[{'text': ['Mon-Sun: 05:00 - 21:00'], 'isOpen': True, 'structured': [{'start': 'T050000', 'duration': 'PT16H00M', 'recurrence': 'FREQ:DAILY;BYDAY:MO,TU,WE,TH,FR,SA,SU'}]}]",,9.36484,122.80593
111,Sea Oil,here:pds:place:608w9xm6-7f48af58abee497e989101e9a6238fd7,here:cm:ontology:petrol_gasoline_station,place,"{'label': 'Sea Oil, National Hwy, 6221 Bayawan, Philippines', 'countryCode': 'PHL', 'countryName': 'Philippines', 'state': 'Central Visayas', 'county': 'Negros Oriental', 'city': 'Bayawan', 'district': 'Villareal', 'street': 'National Hwy', 'postalCode': '6221'}","{'lat': 9.36437, 'lng': 122.80716}","[{'lat': 9.36434, 'lng': 122.80715}]",310,"[{'id': '700-7600-0116', 'name': 'Gas Station', 'primary': True}]",[{'id': '8673'}],"[{'supplier': {'id': 'core'}, 'id': '1200726239'}]",,,,9.36437,122.80716
112,Petron,here:pds:place:608jx7ps-b07064e8eee70a8f8a4b3d061c4a5991,here:cm:ontology:petrol_gasoline_station,place,"{'label': 'Petron, 6221 Bayawan, Philippines', 'countryCode': 'PHL', 'countryName': 'Philippines', 'state': 'Central Visayas', 'county': 'Negros Oriental', 'city': 'Bayawan', 'district': 'Tinago Pob.', 'postalCode': '6221'}","{'lat': 9.36399, 'lng': 122.80364}","[{'lat': 9.36398, 'lng': 122.80366}]",365,"[{'id': '700-7600-0116', 'name': 'Gas Station', 'primary': True}, {'id': '600-6000-0061', 'name': 'Convenience Store'}]",[{'id': '7065'}],"[{'supplier': {'id': 'core'}, 'id': '1194184884'}, {'supplier': {'id': 'core'}, 'id': '1200726240'}, {'supplier': {'id': 'core'}, 'id': '1200727858'}]",,,,9.36399,122.80364
113,Caltex,here:pds:place:608w9xm6-fd353ceca3cf420a89cfb13051beff5c,here:cm:ontology:petrol_gasoline_station,place,"{'label': 'Caltex, National Hwy, 6221 Bayawan, Philippines', 'countryCode': 'PHL', 'countryName': 'Philippines', 'state': 'Central Visayas', 'county': 'Negros Oriental', 'city': 'Bayawan', 'district': 'Villareal', 'street': 'National Hwy', 'postalCode': '6221'}","{'lat': 9.36319, 'lng': 122.81006}","[{'lat': 9.36318, 'lng': 122.81006}]",627,"[{'id': '700-7600-0116', 'name': 'Gas Station', 'primary': True}]",[{'id': '878'}],"[{'supplier': {'id': 'core'}, 'id': '1200726241'}]",,,,9.36319,122.81006
114,Red Skin Fuel Station,here:pds:place:608w9xm6-53b9ea470e0e4ba2acd3178084a917b0,here:cm:ontology:petrol_gasoline_station,place,"{'label': 'Red Skin Fuel Station, National Hwy, 6221 Bayawan, Philippines', 'countryCode': 'PHL', 'countryName': 'Philippines', 'state': 'Central Visayas', 'county': 'Negros Oriental', 'city': 'Bayawan', 'district': 'Banga', 'street': 'National Hwy', 'postalCode': '6221'}","{'lat': 9.37129, 'lng': 122.79042}","[{'lat': 9.37128, 'lng': 122.79042}]",1739,"[{'id': '700-7600-0116', 'name': 'Gas Station', 'primary': True}]",,"[{'supplier': {'id': 'core'}, 'id': '1200726284'}]",,,,9.37129,122.79042
115,Petron,here:pds:place:608w9xm4-524f08375149472fb694eae876b6db16,here:cm:ontology:petrol_gasoline_station,place,"{'label': 'Petron, Sta. Catalina-Bayawan Rd, 6221 Bayawan, Philippines', 'countryCode': 'PHL', 'countryName': 'Philippines', 'state': 'Central Visayas', 'county': 'Negros Oriental', 'city': 'Bayawan', 'district': 'Villareal', 'street': 'Sta. Catalina-Bayawan Rd', 'postalCode': '6221'}","{'lat': 9.35852, 'lng': 122.82195}","[{'lat': 9.35853, 'lng': 122.82196}]",2014,"[{'id': '700-7600-0116', 'name': 'Gas Station', 'primary': True}]",[{'id': '7065'}],"[{'supplier': {'id': 'core'}, 'id': '1200717973'}]",,,,9.35852,122.82195
116,Villareal Gasoline Station,here:pds:place:608w9xm5-ab9cf85098eb4fec89c5d9784f05b5c7,here:cm:ontology:petrol_gasoline_station,place,"{'label': 'Villareal Gasoline Station, National Hwy, 6221 Bayawan, Philippines', 'countryCode': 'PHL', 'countryName': 'Philippines', 'state': 'Central Visayas', 'county': 'Negros Oriental', 'city': 'Bayawan', 'district': 'Villareal', 'street': 'National Hwy', 'postalCode': '6221'}","{'lat': 9.35467, 'lng': 122.83227}","[{'lat': 9.35466, 'lng': 122.83226}]",3220,"[{'id': '700-7600-0116', 'name': 'Gas Station', 'primary': True}]",,"[{'supplier': {'id': 'core'}, 'id': '1200718231'}]",,,,9.35467,122.83227
117,K-Lana Gasoline Station,here:pds:place:608jx7ps-80261c6981c00355e602c8d301e93983,here:cm:ontology:petrol_gasoline_station,place,"{'label': 'K-Lana Gasoline Station, National Hwy, 6221 Bayawan, Philippines', 'countryCode': 'PHL', 'countryName': 'Philippines', 'state': 'Central Visayas', 'county': 'Negros Oriental', 'city': 'Bayawan', 'district': 'Villareal', 'street': 'National Hwy', 'postalCode': '6221'}","{'lat': 9.35413, 'lng': 122.83338}","[{'lat': 9.35415, 'lng': 122.83339}]",3356,"[{'id': '700-7600-0116', 'name': 'Gas Station', 'primary': True}]",,"[{'supplier': {'id': 'core'}, 'id': '1118541561'}]",,,,9.35413,122.83338
118,Poblacion Petrol Station,here:pds:place:608w9xm5-69e651fd2cf54c69b677b434813c0fc7,here:cm:ontology:petrol_gasoline_station,place,"{'label': 'Poblacion Petrol Station, National Hwy, 6220 Santa Catalina, Philippines', 'countryCode': 'PHL', 'countryName': 'Philippines', 'state': 'Central Visayas', 'county': 'Negros Oriental', 'city': 'Santa Catalina', 'district': 'Poblacion', 'street': 'National Hwy', 'postalCode': '6220'}","{'lat': 9.33615, 'lng': 122.86094}","[{'lat': 9.33613, 'lng': 122.86091}]",6960,"[{'id': '700-7600-0116', 'name': 'Gas Station', 'primary': True}]",,"[{'supplier': {'id': 'core'}, 'id': '1200726363'}]",,,,9.33615,122.86094
119,Petron,here:pds:place:608jx7ps-8b703643bdde04a307351af0e280bf7e,here:cm:ontology:petrol_gasoline_station,place,"{'label': 'Petron, National Hwy, 6220 Santa Catalina, Philippines', 'countryCode': 'PHL', 'countryName': 'Philippines', 'state': 'Central Visayas', 'county': 'Negros Oriental', 'city': 'Santa Catalina', 'district': 'Poblacion', 'street': 'National Hwy', 'postalCode': '6220'}","{'lat': 9.33607, 'lng': 122.86101}","[{'lat': 9.33604, 'lng': 122.86098}]",6971,"[{'id': '700-7600-0116', 'name': 'Gas Station', 'primary': True}]",[{'id': '7065'}],"[{'supplier': {'id': 'core'}, 'id': '1118544699'}]",,,,9.33607,122.86101
120,Sea Oil,here:pds:place:608wcbsx-fd81f2993c28ed4e5ccd5f699ebc2df5,here:cm:ontology:petrol_gasoline_station,place,"{'label': 'Sea Oil, 6521 Baybay, Philippines', 'countryCode': 'PHL', 'countryName': 'Philippines', 'state': 'Eastern Visayas', 'county': 'Leyte', 'city': 'Baybay', 'district': 'Poblacion Zone 10', 'postalCode': '6521'}","{'lat': 10.67518, 'lng': 124.79883}","[{'lat': 10.67517, 'lng': 124.79882}]",307,"[{'id': '700-7600-0116', 'name': 'Gas Station', 'primary': True}]",[{'id': '8673'}],"[{'supplier': {'id': 'core'}, 'id': '1220020756'}]",,,,10.67518,124.79883
121,Petron,here:pds:place:608jx7ps-79c85424b9d40f663933e4fb8e1a792d,here:cm:ontology:petrol_gasoline_station,place,"{'label': 'Petron, R. Magsaysay Ave, 6521 Baybay, Philippines', 'countryCode': 'PHL', 'countryName': 'Philippines', 'state': 'Eastern Visayas', 'county': 'Leyte', 'city': 'Baybay', 'district': 'Poblacion Zone 10', 'street': 'R. Magsaysay Ave', 'postalCode': '6521'}","{'lat': 10.67485, 'lng': 124.79994}","[{'lat': 10.67484, 'lng': 124.79993}]",421,"[{'id': '700-7600-0116', 'name': 'Gas Station', 'primary': True}]",[{'id': '7065'}],"[{'supplier': {'id': 'core'}, 'id': '1113208993'}]",,,,10.67485,124.79994
122,Petron,here:pds:place:608jx7ps-25a68a6cce35017de8ba5941fceacc47,here:cm:ontology:petrol_gasoline_station,place,"{'label': 'Petron, Albuera-Baybay Rd, 6521 Baybay, Philippines', 'countryCode': 'PHL', 'countryName': 'Philippines', 'state': 'Eastern Visayas', 'county': 'Leyte', 'city': 'Baybay', 'district': 'Candadam', 'street': 'Albuera-Baybay Rd', 'postalCode': '6521'}","{'lat': 10.69275, 'lng': 124.80042}","[{'lat': 10.69276, 'lng': 124.80045}]",1768,"[{'id': '700-7600-0116', 'name': 'Gas Station', 'primary': True}]",[{'id': '30984'}],"[{'supplier': {'id': 'core'}, 'id': '1115635092'}, {'supplier': {'id': 'core'}, 'id': '1115635461'}]",,,,10.69275,124.80042
123,Petron,here:pds:place:608jx7ps-5961ee19d86d06092c248fbf49ce9b6a,here:cm:ontology:petrol_gasoline_station,place,"{'label': 'Petron, Tacloban-Baybay South Rd, 6521 Baybay, Philippines', 'countryCode': 'PHL', 'countryName': 'Philippines', 'state': 'Eastern Visayas', 'county': 'Leyte', 'city': 'Baybay', 'district': 'Poblacion Zone 23', 'street': 'Tacloban-Baybay South Rd', 'postalCode': '6521'}","{'lat': 10.66829, 'lng': 124.81036}","[{'lat': 10.66828, 'lng': 124.81036}]",1771,"[{'id': '700-7600-0116', 'name': 'Gas Station', 'primary': True}]",[{'id': '7065'}],"[{'supplier': {'id': 'core'}, 'id': '1115635431'}]",,,,10.66829,124.81036
124,Nfuels,here:pds:place:608wcbug-383597b0ead8952e4ca81c5037b9c153,here:cm:ontology:petrol_gasoline_station,place,"{'label': 'Nfuels, Maharlika Hwy, 6510 Abuyog, Philippines', 'countryCode': 'PHL', 'countryName': 'Philippines', 'state': 'Eastern Visayas', 'county': 'Leyte', 'city': 'Abuyog', 'district': 'Paguite', 'street': 'Maharlika Hwy', 'postalCode': '6510'}","{'lat': 10.70737, 'lng': 124.95759}","[{'lat': 10.70737, 'lng': 124.95758}]",17871,"[{'id': '700-7600-0116', 'name': 'Gas Station', 'primary': True}]",,"[{'supplier': {'id': 'core'}, 'id': '1220020755'}]",,,,10.70737,124.95759
125,Mahaplag Gasoline Station,here:pds:place:608jx7ps-dcb6062927d80b8c7a23bef9657c5138,here:cm:ontology:petrol_gasoline_station,place,"{'label': 'Mahaplag Gasoline Station, Hilosig-Sogod Rd, 6512 Mahaplag, Philippines', 'countryCode': 'PHL', 'countryName': 'Philippines', 'state': 'Eastern Visayas', 'county': 'Leyte', 'city': 'Mahaplag', 'district': 'San Isidro', 'street': 'Hilosig-Sogod Rd', 'postalCode': '6512'}","{'lat': 10.60554, 'lng': 124.96304}","[{'lat': 10.60554, 'lng': 124.96303}]",19825,"[{'id': '700-7600-0116', 'name': 'Gas Station', 'primary': True}]",,"[{'supplier': {'id': 'core'}, 'id': '1115635026'}]",,,,10.60554,124.96304
126,Petron,here:pds:place:608jx7ps-7fda62dc4a6c0e58985c52930cd16509,here:cm:ontology:petrol_gasoline_station,place,"{'label': 'Petron, Daang Maharlika, 6512 Mahaplag, Philippines', 'countryCode': 'PHL', 'countryName': 'Philippines', 'state': 'Eastern Visayas', 'county': 'Leyte', 'city': 'Mahaplag', 'district': 'San Isidro', 'street': 'Daang Maharlika', 'postalCode': '6512'}","{'lat': 10.60196, 'lng': 124.96174}","[{'lat': 10.60196, 'lng': 124.96173}]",19859,"[{'id': '700-7600-0116', 'name': 'Gas Station', 'primary': True}]",[{'id': '7065'}],"[{'supplier': {'id': 'core'}, 'id': '1115635466'}]",,,,10.60196,124.96174
127,Petron,here:pds:place:608jx7ps-598fd6010041095dade6947145e94b38,here:cm:ontology:petrol_gasoline_station,place,"{'label': 'Petron, Ormoc-Baybay-Southern Leyte Bdry Rd, 6522 Inopacan, Philippines', 'countryCode': 'PHL', 'countryName': 'Philippines', 'state': 'Eastern Visayas', 'county': 'Leyte', 'city': 'Inopacan', 'district': 'Poblacion', 'street': 'Ormoc-Baybay-Southern Leyte Bdry Rd', 'postalCode': '6522'}","{'lat': 10.50231, 'lng': 124.74498}","[{'lat': 10.50229, 'lng': 124.74499}]",20261,"[{'id': '700-7600-0116', 'name': 'Gas Station', 'primary': True}]",[{'id': '7065'}],"[{'supplier': {'id': 'core'}, 'id': '1113207029'}]",,,,10.50231,124.74498
128,Filoil,here:pds:place:608wcbew-2a2c152e4ff620bc3b25e7f3557356d5,here:cm:ontology:petrol_gasoline_station,place,"{'label': 'Filoil, San Roque St, 6522 Inopacan, Philippines', 'countryCode': 'PHL', 'countryName': 'Philippines', 'state': 'Eastern Visayas', 'county': 'Leyte', 'city': 'Inopacan', 'district': 'Poblacion', 'street': 'San Roque St', 'postalCode': '6522'}","{'lat': 10.4987, 'lng': 124.73945}","[{'lat': 10.49868, 'lng': 124.73946}]",20821,"[{'id': '700-7600-0116', 'name': 'Gas Station', 'primary': True}]",[{'id': '30984'}],"[{'supplier': {'id': 'core'}, 'id': '1220285032'}]",,,,10.4987,124.73945
129,Petron,here:pds:place:608wcbty-cf5711de879b450c857ac87df5ff5091,here:cm:ontology:petrol_gasoline_station,place,"{'label': 'Petron, Albuera-Baybay Rd, 6542 Albuera, Philippines', 'countryCode': 'PHL', 'countryName': 'Philippines', 'state': 'Eastern Visayas', 'county': 'Leyte', 'city': 'Albuera', 'district': 'Damula-an', 'street': 'Albuera-Baybay Rd', 'postalCode': '6542'}","{'lat': 10.85769, 'lng': 124.73353}","[{'lat': 10.85768, 'lng': 124.73352}]",21229,"[{'id': '700-7600-0116', 'name': 'Gas Station', 'primary': True}]",[{'id': '7065'}],"[{'supplier': {'id': 'core'}, 'id': '1204181513'}]",,,,10.85769,124.73353
130,Shell,here:pds:place:608jx7ps-50f679c07f210abf8436d65af1494e51,here:cm:ontology:petrol_gasoline_station,place,"{'label': 'Shell, Narra Ave, 8502 Baguyan, Philippines', 'countryCode': 'PHL', 'countryName': 'Philippines', 'state': 'Caraga', 'county': 'Agusan del Sur', 'city': 'Baguyan', 'district': 'Poblacion', 'street': 'Narra Ave', 'postalCode': '8502'}","{'lat': 8.71495, 'lng': 125.74732}","[{'lat': 8.71472, 'lng': 125.74741}]",119,"[{'id': '700-7600-0116', 'name': 'Gas Station', 'primary': True}, {'id': '600-6000-0061', 'name': 'Convenience Store'}]",[{'id': '10'}],"[{'supplier': {'id': 'core'}, 'id': '1126147755'}]","[{'www': [{'value': 'https://find.shell.com/ph/fuel/11907791-sh-p22-poblacion-bayugan', 'categories': [{'id': '700-7600-0116'}]}]}]",,,8.71495,125.74732
131,Phoenix,here:pds:place:608jx7ps-b6c7280d642f03ede21f661255320280,here:cm:ontology:petrol_gasoline_station,place,"{'label': 'Phoenix, Narra Ave, 8502 Baguyan, Philippines', 'countryCode': 'PHL', 'countryName': 'Philippines', 'state': 'Caraga', 'county': 'Agusan del Sur', 'city': 'Baguyan', 'district': 'Poblacion', 'street': 'Narra Ave', 'postalCode': '8502'}","{'lat': 8.71661, 'lng': 125.74161}","[{'lat': 8.71659, 'lng': 125.7416}]",759,"[{'id': '700-7600-0116', 'name': 'Gas Station', 'primary': True}]",[{'id': '963'}],"[{'supplier': {'id': 'core'}, 'id': '1126150576'}, {'supplier': {'id': 'core'}, 'id': '1176031108'}]",,,,8.71661,125.74161
132,ABC,here:pds:place:608jx7ps-9ac33f7fc89b05976286963d6cd9e555,here:cm:ontology:petrol_gasoline_station,place,"{'label': 'ABC, Daang Maharlika, 8502 Baguyan, Philippines', 'countryCode': 'PHL', 'countryName': 'Philippines', 'state': 'Caraga', 'county': 'Agusan del Sur', 'city': 'Baguyan', 'district': 'Poblacion', 'street': 'Daang Maharlika', 'postalCode': '8502'}","{'lat': 8.71696, 'lng': 125.74098}","[{'lat': 8.71695, 'lng': 125.74097}]",838,"[{'id': '700-7600-0116', 'name': 'Gas Station', 'primary': True}]",,"[{'supplier': {'id': 'core'}, 'id': '1130571550'}]",,,,8.71696,125.74098
133,Shell,here:pds:place:608jx7ps-67a927a732a80905c6ba23547c28c1f7,here:cm:ontology:petrol_gasoline_station,place,"{'label': 'Shell, Narra Ave, 8502 Baguyan, Philippines', 'countryCode': 'PHL', 'countryName': 'Philippines', 'state': 'Caraga', 'county': 'Agusan del Sur', 'city': 'Baguyan', 'district': 'Poblacion', 'street': 'Narra Ave', 'postalCode': '8502'}","{'lat': 8.71352, 'lng': 125.75567}","[{'lat': 8.71351, 'lng': 125.75567}]",840,"[{'id': '700-7600-0116', 'name': 'Gas Station', 'primary': True}]",[{'id': '10'}],"[{'supplier': {'id': 'core'}, 'id': '1126147756'}, {'supplier': {'id': 'core'}, 'id': '1126152329'}]","[{'phone': [{'value': '+639177230907'}], 'www': [{'value': 'https://find.shell.com/ph/fuel/11907791-sh-p22-poblacion-bayugan'}]}]","[{'text': ['Mon-Sun: 00:00 - 24:00'], 'isOpen': True, 'structured': [{'start': 'T000000', 'duration': 'PT24H00M', 'recurrence': 'FREQ:DAILY;BYDAY:MO,TU,WE,TH,FR,SA,SU'}]}]",,8.71352,125.75567
134,Petron,here:pds:place:608jx7ps-6223b5fd5cf20b13b82da1a6f0af9020,here:cm:ontology:petrol_gasoline_station,place,"{'label': 'Petron, Daang Maharlika, 8502 Baguyan, Philippines', 'countryCode': 'PHL', 'countryName': 'Philippines', 'state': 'Caraga', 'county': 'Agusan del Sur', 'city': 'Baguyan', 'district': 'Taglatawan', 'street': 'Daang Maharlika', 'postalCode': '8502'}","{'lat': 8.71315, 'lng': 125.75803}","[{'lat': 8.71318, 'lng': 125.75803}]",1102,"[{'id': '700-7600-0116', 'name': 'Gas Station', 'primary': True}, {'id': '700-7850-0122', 'name': 'Car Repair'}]",[{'id': '7065'}],"[{'supplier': {'id': 'core'}, 'id': '1126152320'}, {'supplier': {'id': 'core'}, 'id': '1126152323'}]",[{'www': [{'value': 'https://www.petron.com/what-we-offer2.html'}]}],,,8.71315,125.75803
135,Caltex,here:pds:place:608jx7ps-694a5a482b8100ad607fa3326b69b606,here:cm:ontology:petrol_gasoline_station,place,"{'label': 'Caltex, Daang Maharlika, 8502 Baguyan, Philippines', 'countryCode': 'PHL', 'countryName': 'Philippines', 'state': 'Caraga', 'county': 'Agusan del Sur', 'city': 'Baguyan', 'district': 'Maygatasan', 'street': 'Daang Maharlika', 'postalCode': '8502'}","{'lat': 8.71899, 'lng': 125.73791}","[{'lat': 8.71898, 'lng': 125.7379}]",1238,"[{'id': '700-7600-0116', 'name': 'Gas Station', 'primary': True}]",[{'id': '878'}],"[{'supplier': {'id': 'core'}, 'id': '1130572167'}]",,,,8.71899,125.73791
136,Sea Oil,here:pds:place:608jx7ps-4d473632992d029481e8fcaa8c07bd19,here:cm:ontology:petrol_gasoline_station,place,"{'label': 'Sea Oil, Daang Maharlika, 8502 Baguyan, Philippines', 'countryCode': 'PHL', 'countryName': 'Philippines', 'state': 'Caraga', 'county': 'Agusan del Sur', 'city': 'Baguyan', 'district': 'Fili', 'street': 'Daang Maharlika', 'postalCode': '8502'}","{'lat': 8.71257, 'lng': 125.76251}","[{'lat': 8.71259, 'lng': 125.76251}]",1598,"[{'id': '700-7600-0116', 'name': 'Gas Station', 'primary': True}]",[{'id': '8673'}],"[{'supplier': {'id': 'core'}, 'id': '1130294088'}]",,,,8.71257,125.76251
137,Phoenix,here:pds:place:608jx7ps-10e4a6bf484d03ec4a535f4f28ccb18c,here:cm:ontology:petrol_gasoline_station,place,"{'label': 'Phoenix, Daang Maharlika, 8502 Baguyan, Philippines', 'countryCode': 'PHL', 'countryName': 'Philippines', 'state': 'Caraga', 'county': 'Agusan del Sur', 'city': 'Baguyan', 'district': 'Fili', 'street': 'Daang Maharlika', 'postalCode': '8502'}","{'lat': 8.712, 'lng': 125.76689}","[{'lat': 8.71202, 'lng': 125.76689}]",2084,"[{'id': '700-7600-0116', 'name': 'Gas Station', 'primary': True}]",[{'id': '963'}],"[{'supplier': {'id': 'core'},